{"type":"FeatureCollection","features":[{"type":"Feature","properties":{"church_name":"8th Street Missionary Baptist Church","AirtableRecord":"recSHQCDCXASF9vG9","place_id":"ChIJy_fWDP1mZIgRF5Z9TCemv54","name":"Eighth Street Baptist Church","website":"http://esmbchurch.org/","latitude":"36.1753155","longitude":"-86.79005650","address":"1223 6th Ave N, Nashville, TN 37208, USA","phone_number":"+1 615-256-6937","last_updated":"2023-05-28 21:20"},"geometry":{"type":"Point","coordinates":[-86.790057,36.175316]}},{"type":"Feature","properties":{"church_name":"Abundant Life Living Word Church","AirtableRecord":"recgpCs2WXCZNI2qo","place_id":"ChIJ17on0TNCZIgRndi5dXDL-PI","name":"Abundant Life Living Word","website":"http://www.allwordchurch.org/","latitude":"36.2553580","longitude":"-86.67416500","address":"1150 Cheyenne Blvd, Madison, TN 37115, USA","phone_number":"+1 615-712-9382","last_updated":"2023-05-28 21:20"},"geometry":{"type":"Point","coordinates":[-86.674165,36.255358]}},{"type":"Feature","properties":{"church_name":"Acklen Avenue Church of Christ","AirtableRecord":"rechJPSzBYlPtfoky","place_id":"ChIJY3HPDYBmZIgRNgStGhDXuSw","name":"Acklen Avenue Church of Christ","website":"http://www.acklen.org/","latitude":"36.1342989","longitude":"-86.78251860","address":"900 Acklen Ave, Nashville, TN 37203, USA","phone_number":"+1 615-292-5549","last_updated":"2023-05-28 21:20"},"geometry":{"type":"Point","coordinates":[-86.782519,36.134299]}},{"type":"Feature","properties":{"church_name":"Aldersgate United Methodist Church","AirtableRecord":"recd1FsWzBT2V1QXb","place_id":"ChIJTVmVn0RoZIgRZZO1RWaYV18","name":"Aldersgate United Methodist","website":"http://aumcnashville.org/","latitude":"36.1868579","longitude":"-86.71645810","address":"512 Rosebank Ave, Nashville, TN 37206, USA","phone_number":"+1 615-226-2781","last_updated":"2023-05-28 21:20"},"geometry":{"type":"Point","coordinates":[-86.716458,36.186858]}},{"type":"Feature","properties":{"church_name":"All In One Kingdom Church","AirtableRecord":"recBdyebaAWIVnMkl","place_id":"ChIJR3A8B_VlZIgRAI6beeTL9wI","name":"All in one kindgom church","website":"https://all-in-one-kindgom-church.business.site/","latitude":"36.1130908","longitude":"-86.74355010","address":"2803c Foster Ave, Nashville, TN 37211, USA","phone_number":"+1 615-403-3792","last_updated":"2023-05-28 21:20"},"geometry":{"type":"Point","coordinates":[-86.74355,36.113091]}},{"type":"Feature","properties":{"church_name":"All Saints Southern Episcopal Church","AirtableRecord":"recYDUXEiBNTLOmfZ","place_id":"ChIJU3IpAUJhZIgRmrEq3khkP4Y","name":"All Saints Southern Episcopal","website":"http://allsaints.tripod.com/","latitude":"36.1507210","longitude":"-86.84197320","address":"4513 Park Ave, Nashville, TN 37209, USA","phone_number":"+1 615-269-5017","last_updated":"2023-05-28 21:20"},"geometry":{"type":"Point","coordinates":[-86.841973,36.150721]}},{"type":"Feature","properties":{"church_name":"All Souls Church","AirtableRecord":"recFl201LHjCApisp","place_id":"ChIJ15j7LMBnZIgR10o-JYFY4fE","name":"All Souls Church of Nashville","website":"http://allsoulsnashville.com/","latitude":"36.2135046","longitude":"-86.76513270","address":"2526 Dickerson Pike, Nashville, TN 37207, USA","phone_number":"+1 512-808-7442","last_updated":"2023-05-28 21:20"},"geometry":{"type":"Point","coordinates":[-86.765133,36.213505]}},{"type":"Feature","properties":{"church_name":"Antioch Church of Christ","AirtableRecord":"reccFuiaigfnErTwU","place_id":"ChIJdw4HSkBuZIgRwRFRslewH0M","name":"Antioch Church of Christ","website":"http://antiochcofc.org/","latitude":"36.0669592","longitude":"-86.68106470","address":"2142 Antioch Pike, Antioch, TN 37013, USA","phone_number":"+1 615-834-3063","last_updated":"2023-05-28 21:20"},"geometry":{"type":"Point","coordinates":[-86.681065,36.066959]}},{"type":"Feature","properties":{"church_name":"Antioch First Baptist Church","AirtableRecord":"recRnwebkaLrOE3lU","place_id":"ChIJBXk1cA5uZIgR0gEp5UTIEhg","name":"Antioch First Baptist Church","website":"http://www.antiochfirstbaptist.org/","latitude":"36.0601809","longitude":"-86.66865960","address":"2601 Una Antioch Pike, Antioch, TN 37013, USA","phone_number":"+1 615-832-7486","last_updated":"2023-05-28 21:20"},"geometry":{"type":"Point","coordinates":[-86.66866,36.060181]}},{"type":"Feature","properties":{"church_name":"Antioch Jehovah's Witness Church","AirtableRecord":"recYrQqy0rXSQULVC","place_id":"ChIJTRTwHE9sZIgRJPuydezDa7g","name":"Kingdom Hall of Jehovah's Witnesses","website":"http://www.jw.org/","latitude":"36.0939520","longitude":"-86.63319800","address":"2504 Smith Springs Rd, Nashville, TN 37217, USA","phone_number":"+1 615-367-0514","last_updated":"2023-05-28 21:20"},"geometry":{"type":"Point","coordinates":[-86.633198,36.093952]}},{"type":"Feature","properties":{"church_name":"Antioch Missionary Baptist Church","AirtableRecord":"recglsT2MGiHxEc4I","place_id":"ChIJaYxT-e9nZIgR2D14tymw8uI","name":"Antioch Missionary Baptist Church","website":"https://www.antiochbaptistchurchnashville.com/","latitude":"36.2080028","longitude":"-86.75192730","address":"2037 Oakwood Ave, Nashville, TN 37207, USA","phone_number":"+1 615-226-1224","last_updated":"2023-05-28 21:20"},"geometry":{"type":"Point","coordinates":[-86.751927,36.208003]}},{"type":"Feature","properties":{"church_name":"Antioch United Methodist Church","AirtableRecord":"recgrVYRQHBarjS8p","place_id":"ChIJ5b4zjRluZIgRucfbL8f0_64","name":"Antioch United Methodist Church","website":"http://www.antiochumc.net/","latitude":"36.0522427","longitude":"-86.67700190","address":"41 Tusculum Rd, Antioch, TN 37013, USA","phone_number":"+1 615-832-6248","last_updated":"2023-05-28 21:20"},"geometry":{"type":"Point","coordinates":[-86.677002,36.052243]}},{"type":"Feature","properties":{"church_name":"Arlington United Methodist Church","AirtableRecord":"rec51NtmRlJKIVrMU","place_id":"ChIJ4wmon9tuZIgR7kBh0X3U_S0","name":"Arlington United Methodist Church","website":"http://www.arlingtonum.org/","latitude":"36.1154227","longitude":"-86.69424520","address":"1360 Murfreesboro Pike, Nashville, TN 37217, USA","phone_number":"+1 615-361-4896","last_updated":"2023-05-28 21:20"},"geometry":{"type":"Point","coordinates":[-86.694245,36.115423]}},{"type":"Feature","properties":{"church_name":"Assumption Church","AirtableRecord":"reckkC20VO9Q7itCe","place_id":"ChIJu-ZGIv1mZIgRABBdQ_ywVSA","name":"Assumption Church","website":"https://www.assumptionnashville.org/","latitude":"36.1754320","longitude":"-86.79150370","address":"1227 7th Ave N, Nashville, TN 37208, USA","phone_number":"+1 615-256-2729","last_updated":"2023-05-28 21:20"},"geometry":{"type":"Point","coordinates":[-86.791504,36.175432]}},{"type":"Feature","properties":{"church_name":"Axis Church","AirtableRecord":"recpljgrVZFdSk2nD","place_id":"ChIJARL-3ANnZIgRBlrHIpttb4c","name":"The Axis Church","website":"http://theaxischurch.org/","latitude":"36.1808526","longitude":"-86.78739980","address":"1423 2nd Ave N, Nashville, TN 37208, USA","phone_number":"+1 615-212-5337","last_updated":"2023-05-28 21:20"},"geometry":{"type":"Point","coordinates":[-86.7874,36.180853]}},{"type":"Feature","properties":{"church_name":"Barth Vernon United Methodist Church","AirtableRecord":"recyXauuXF2DbTJqQ","place_id":"ChIJf_FfbKJhZIgRUZOOKoi3NDQ","name":"Barth Vernon UMC","website":"http://barthvernonumc.blogspot.com/","latitude":"36.1576295","longitude":"-86.87162590","address":"6200 Robertson Ave, Nashville, TN 37209, USA","phone_number":"+1 615-356-0206","last_updated":"2023-05-28 21:20"},"geometry":{"type":"Point","coordinates":[-86.871626,36.157629]}},{"type":"Feature","properties":{"church_name":"Bass Street Missionary Baptist Church","AirtableRecord":"recXCCrIvdZ0HSIsH","place_id":"ChIJUXGN1ylkZIgRtFRiGFrQwzM","name":"Bass Street Baptist Church","website":"https://www.facebook.com/bassstreetmbc/","latitude":"36.2488917","longitude":"-86.77556250","address":"3447 Brick Church Pike, Nashville, TN 37207, USA","phone_number":"+1 615-298-4622","last_updated":"2023-05-28 21:20"},"geometry":{"type":"Point","coordinates":[-86.775563,36.248892]}},{"type":"Feature","properties":{"church_name":"Beacon Baptist Church","AirtableRecord":"recgWCITgysiGV2BS","place_id":"ChIJKVWGIOhcZIgR1hUKPn2n3dk","name":"Beacon Baptist Church","website":"https://www.facebook.com/beaconbaptistnashville/","latitude":"36.2752188","longitude":"-86.76151340","address":"4040 Marydale Dr, Nashville, TN 37207, USA","phone_number":"+1 615-865-5300","last_updated":"2023-05-28 21:20"},"geometry":{"type":"Point","coordinates":[-86.761513,36.275219]}},{"type":"Feature","properties":{"church_name":"Beech Creek Missionary Baptist Church","AirtableRecord":"recPsHh4OvvQ0Xge7","place_id":"ChIJjQEV8slgZIgRuVFqgux5GL8","name":"Beech Creek Missionary Baptist","website":"http://beech-baptist.lany.io/","latitude":"36.1983643","longitude":"-86.82749530","address":"3101 Curtis St, Nashville, TN 37218, USA","phone_number":"+1 615-255-6277","last_updated":"2023-05-28 21:20"},"geometry":{"type":"Point","coordinates":[-86.827495,36.198364]}},{"type":"Feature","properties":{"church_name":"Beech Grove United Methodist Church","AirtableRecord":"recrheewhfSOHwLMW","place_id":"ChIJ0WFhI4pcZIgRn20JliYDeb4","name":"Beech Grove United Methodist","website":"http://beechgroveumc.net/","latitude":"36.2897775","longitude":"-86.78030840","address":"4318 Brick Church Pike, Whites Creek, TN 37189, USA","phone_number":"+1 615-876-7281","last_updated":"2023-05-28 21:20"},"geometry":{"type":"Point","coordinates":[-86.780308,36.289777]}},{"type":"Feature","properties":{"church_name":"Bell Road Church of Christ","AirtableRecord":"recF6SRZAzBIpWHaO","place_id":"ChIJu0rKjSpuZIgRHyvkPnOooxU","name":"Bell Road Church of Christ","website":"https://www.facebook.com/BellRoadChurchofChrist/","latitude":"36.0447218","longitude":"-86.69923110","address":"1608 Bell Rd, Nashville, TN 37211, USA","phone_number":"+1 615-833-4444","last_updated":"2023-05-28 21:20"},"geometry":{"type":"Point","coordinates":[-86.699231,36.044722]}},{"type":"Feature","properties":{"church_name":"Bell Road Church of the Nazarene","AirtableRecord":"recquk5snW5ylSRHH","place_id":"ChIJ1zFsvLBtZIgR8bzOb2G34E0","name":"Bell Road Church of the Nazarene","website":"http://bellroadnaz.com/","latitude":"36.0755779","longitude":"-86.63448890","address":"414 Bell Rd, Nashville, TN 37217, USA","phone_number":"+1 615-361-7133","last_updated":"2023-05-28 21:20"},"geometry":{"type":"Point","coordinates":[-86.634489,36.075578]}},{"type":"Feature","properties":{"church_name":"Belle Meade United Methodist Church","AirtableRecord":"reclJd0pfnTAAhh3K","place_id":"ChIJ3eUYdDViZIgROy8LELGooOI","name":"Belle Meade United Methodist Church","website":"https://www.bellemeadeumc.org/","latitude":"36.1148049","longitude":"-86.86434360","address":"121 Davidson Rd, Nashville, TN 37205, USA","phone_number":"+1 615-352-6210","last_updated":"2023-05-28 21:20"},"geometry":{"type":"Point","coordinates":[-86.864344,36.114805]}},{"type":"Feature","properties":{"church_name":"Bellevue Baptist Church","AirtableRecord":"recpFoJaz43fOCExq","place_id":"ChIJVcLTNFyIZIgRFu3akeo5xmI","name":"Bellevue Baptist Church","website":"https://bellevuebaptistnashville.org/","latitude":"36.0750835","longitude":"-86.93578740","address":"7400 US-70S, Nashville, TN 37221, USA","phone_number":"+1 615-646-2711","last_updated":"2023-05-28 21:20"},"geometry":{"type":"Point","coordinates":[-86.935787,36.075083]}},{"type":"Feature","properties":{"church_name":"Bellevue Christian Church","AirtableRecord":"recfXqwKrHa86lv0W","place_id":"ChIJySb7L2aIZIgRQf-Td6C4IkM","name":"Bellevue Christian Church (DOC)","website":"http://bccnashville.org/","latitude":"36.0679168","longitude":"-86.93226430","address":"7201 Old Harding Pike, Nashville, TN 37221, USA","phone_number":"+1 615-646-4894","last_updated":"2023-05-28 21:20"},"geometry":{"type":"Point","coordinates":[-86.932264,36.067917]}},{"type":"Feature","properties":{"church_name":"Bellevue Church of Christ","AirtableRecord":"rec7xVE9rCnc3mQEp","place_id":"ChIJw1T6k12IZIgR1f2F39MOwWU","name":"Bellevue Church of Christ","website":"http://www.bellevue-church.com/","latitude":"36.0732367","longitude":"-86.93578260","address":"7401 Hwy 70 S, Nashville, TN 37221, USA","phone_number":"+1 615-646-9828","last_updated":"2023-05-28 21:20"},"geometry":{"type":"Point","coordinates":[-86.935783,36.073237]}},{"type":"Feature","properties":{"church_name":"Bellevue Jehovah's Witness Church","AirtableRecord":"recmRfEzOfT4ys4Se","place_id":"ChIJ0Y5vbGWIZIgRxv-Jk5d0AL4","name":"Kingdom Hall of Jehovah's Witnesses","website":"http://jw.org/","latitude":"36.0630091","longitude":"-86.93358370","address":"230 Bellevue Rd, Nashville, TN 37221, USA","phone_number":"+1 615-646-3990","last_updated":"2023-05-28 21:20"},"geometry":{"type":"Point","coordinates":[-86.933584,36.063009]}},{"type":"Feature","properties":{"church_name":"Bellevue Presbyterian Church","AirtableRecord":"recD8J4G2UkD7e9Gz","place_id":"ChIJVdPvHF2IZIgRfqv7quiGY6M","name":"Bellevue Presbyterian Church","website":"http://www.bellevuepres.org/","latitude":"36.0745081","longitude":"-86.93412780","address":"100 Cross Timbers Dr, Nashville, TN 37221, USA","phone_number":"+1 615-646-1667","last_updated":"2023-05-28 21:20"},"geometry":{"type":"Point","coordinates":[-86.934128,36.074508]}},{"type":"Feature","properties":{"church_name":"Bellevue United Methodist Church","AirtableRecord":"recqabvcjL4SBMfC2","place_id":"ChIJ58nK8mKIZIgRxfIvyipb6h8","name":"Bellevue United Methodist Church","website":"http://www.bumc.com/","latitude":"36.0625185","longitude":"-86.94087870","address":"7501 Old Harding Pike, Nashville, TN 37221, USA","phone_number":"+1 615-646-4146","last_updated":"2023-05-28 21:20"},"geometry":{"type":"Point","coordinates":[-86.940879,36.062519]}},{"type":"Feature","properties":{"church_name":"Belmont Church","AirtableRecord":"recvlKeSBHcjX7a1D","place_id":"ChIJ5e3CM5BmZIgRe__CYVzLaaM","name":"Belmont Church","website":"https://www.belmont.org/","latitude":"36.1469688","longitude":"-86.79215240","address":"68 Music Square E, Nashville, TN 37203, USA","phone_number":"+1 615-256-2123","last_updated":"2023-05-28 21:20"},"geometry":{"type":"Point","coordinates":[-86.792152,36.146969]}},{"type":"Feature","properties":{"church_name":"Belmont Heights Baptist Church","AirtableRecord":"recYHpiPpHrDCmMo2","place_id":"ChIJUxEY_yZkZIgRD-7B7By1mYg","name":"Belmont Heights Baptist Church","website":"http://www.belmontheights.org/","latitude":"36.1301487","longitude":"-86.79513180","address":"2100 Belmont Blvd, Nashville, TN 37212, USA","phone_number":"+1 615-460-2422","last_updated":"2023-05-28 21:20"},"geometry":{"type":"Point","coordinates":[-86.795132,36.130149]}},{"type":"Feature","properties":{"church_name":"Belmont United Methodist Church","AirtableRecord":"recLBudcQT5MIf1wc","place_id":"ChIJOXrAuJ9mZIgRva1SEaGRZUw","name":"Belmont United Methodist Church","website":"http://www.belmontumc.org/","latitude":"36.1351760","longitude":"-86.79984900","address":"2007 Acklen Ave, Nashville, TN 37212, USA","phone_number":"+1 615-383-0832","last_updated":"2023-05-28 21:20"},"geometry":{"type":"Point","coordinates":[-86.799849,36.135176]}},{"type":"Feature","properties":{"church_name":"Berean Baptist Church","AirtableRecord":"recLVsOL5DyDKbbtT","place_id":"ChIJ3WlkURxeZIgRHZtd2aNyZCc","name":"Berean Baptist Church","website":"http://www.bereanbaptistnashville.org/","latitude":"36.2240982","longitude":"-86.83585310","address":"4825 Fairmeade Ct, Nashville, TN 37218, USA","phone_number":"+1 615-876-4491","last_updated":"2023-05-28 21:20"},"geometry":{"type":"Point","coordinates":[-86.835853,36.224098]}},{"type":"Feature","properties":{"church_name":"Bethel Church of the Nazarene","AirtableRecord":"recQ0vIjM1cVADRsZ","place_id":"ChIJy4UOgLJCZIgR481UiMc4Q2o","name":"Bethel Church of the Nazarene","website":"http://bethelnaz.church/","latitude":"36.2302437","longitude":"-86.73867340","address":"455 Broadmoor Dr, Nashville, TN 37216, USA","phone_number":"+1 615-262-3396","last_updated":"2023-05-28 21:20"},"geometry":{"type":"Point","coordinates":[-86.738673,36.230244]}},{"type":"Feature","properties":{"church_name":"Bethel House of God","AirtableRecord":"recBQNP9LLdEazdco","place_id":"ChIJ0_Dhk7RDZIgRwVgMDwUR9yk","name":"Bethel House of God","website":"http://bethelhouseofgod.org/","latitude":"36.2624540","longitude":"-86.68534090","address":"1022 E Old Hickory Blvd, Madison, TN 37115, USA","phone_number":"+1 615-865-6357","last_updated":"2023-05-28 21:20"},"geometry":{"type":"Point","coordinates":[-86.685341,36.262454]}},{"type":"Feature","properties":{"church_name":"Bethel World Outreach Church","AirtableRecord":"rec4l9kjcOvCcgECl","place_id":"ChIJW8u7WlF7ZIgRK1BF-Q_TTe8","name":"Bethel World Outreach Church","website":"http://www.bethelworld.org/","latitude":"36.0406625","longitude":"-86.81513180","address":"5670 Granny White Pike, Brentwood, TN 37027, USA","phone_number":"+1 615-371-1000","last_updated":"2023-05-28 21:20"},"geometry":{"type":"Point","coordinates":[-86.815132,36.040663]}},{"type":"Feature","properties":{"church_name":"Bethlehem United Primitive Baptist Church","AirtableRecord":"recBWHD9xMF0W38g7","place_id":"ChIJTUQLZipnZIgRUfyaS1mDtiY","name":"Bethlehem United Primitive Baptist Church","website":"http://bethlehemunitedpbc.org/contact.htm","latitude":"36.1786218","longitude":"-86.81897700","address":"1700 26th Ave N, Nashville, TN 37208, USA","phone_number":"+1 615-255-4248","last_updated":"2023-05-28 21:20"},"geometry":{"type":"Point","coordinates":[-86.818977,36.178622]}},{"type":"Feature","properties":{"church_name":"Blakemore United Methodist Church","AirtableRecord":"reck93LRMUoBVMG9N","place_id":"ChIJ-5tcJ_5jZIgRRyZkKQGVEuI","name":"Blakemore United Methodist Church","website":"http://www.blakemoreumc.org/","latitude":"36.1340016","longitude":"-86.82582180","address":"3601 West End Ave, Nashville, TN 37205, USA","phone_number":"+1 615-297-6519","last_updated":"2023-05-28 19:57"},"geometry":{"type":"Point","coordinates":[-86.825822,36.134002]}},{"type":"Feature","properties":{"church_name":"Blueprint Church","AirtableRecord":"receKDRkoo3xKnnuS","place_id":"ChIJe5jK0V1hZIgRRk18zfS6Z6U","name":"Blueprint Church","website":"https://www.blueprintchurch.tv/?utm_source=google&utm_medium=organic&utm_campaign=google_my_business","latitude":"36.3195008","longitude":"-86.71258750","address":"226 S Main St, Goodlettsville, TN 37072, USA","phone_number":"+1 615-541-9580","last_updated":"2023-05-28 19:57"},"geometry":{"type":"Point","coordinates":[-86.712587,36.319501]}},{"type":"Feature","properties":{"church_name":"Bordeaux S.D.A. Church","AirtableRecord":"recbYHdE6aC6nzH4A","place_id":"ChIJdXVWMwleZIgR39X_TERsKwg","name":"Nashville Bordeaux Seventh-day Adventist Church","website":"http://www.bordeaux22.adventistchurchconnect.org/","latitude":"36.2359649","longitude":"-86.82814460","address":"5121 Buena Vista Pike, Nashville, TN 37218, USA","phone_number":"+1 615-876-3630","last_updated":"2023-05-28 19:57"},"geometry":{"type":"Point","coordinates":[-86.828145,36.235965]}},{"type":"Feature","properties":{"church_name":"Born Again Church","AirtableRecord":"recFEEmqLNCQBj0DC","place_id":"ChIJ577-rkthZIgRMWHsPjGUk98","name":"Born Again Church","website":"http://bornagainchurch.org/","latitude":"36.2056930","longitude":"-86.80364390","address":"858 W Trinity Ln, Nashville, TN 37207, USA","phone_number":"+1 615-228-9287","last_updated":"2023-05-28 19:57"},"geometry":{"type":"Point","coordinates":[-86.803644,36.205693]}},{"type":"Feature","properties":{"church_name":"Braden United Methodist Church","AirtableRecord":"recptNnYMGl3VtNHY","place_id":"ChIJjYsDzjRmZIgRYQvtlX5_6ds","name":"Braden United Methodist Church","website":"http://bradenmemorialumc.com/","latitude":"36.1757671","longitude":"-86.75867550","address":"803 Main St, Nashville, TN 37206, USA","phone_number":"+1 615-256-1323","last_updated":"2023-05-28 19:57"},"geometry":{"type":"Point","coordinates":[-86.758675,36.175767]}},{"type":"Feature","properties":{"church_name":"Brenthaven Cumberland Presbyterian","AirtableRecord":"recth6Fg5bSbx6J0Q","place_id":"ChIJ1c9FOhF7ZIgRTWACavDz5eU","name":"Brenthaven Cumberland Presbyterian","website":"http://brenthaven.org/","latitude":"36.0190881","longitude":"-86.79556310","address":"516 Franklin Rd, Brentwood, TN 37027, USA","phone_number":"+1 615-373-4826","last_updated":"2023-05-28 19:57"},"geometry":{"type":"Point","coordinates":[-86.795563,36.019088]}},{"type":"Feature","properties":{"church_name":"Brentwood Baptist Church","AirtableRecord":"recIC1wQ3xAOBKcSk","place_id":"ChIJa7o3kJh7ZIgRwEYWWSrbzDI","name":"Brentwood Baptist","website":"http://www.brentwoodbaptist.com/","latitude":"35.9966870","longitude":"-86.80281800","address":"7777 Concord Rd, Brentwood, TN 37027, USA","phone_number":"+1 615-324-6100","last_updated":"2023-05-28 19:57"},"geometry":{"type":"Point","coordinates":[-86.802818,35.996687]}},{"type":"Feature","properties":{"church_name":"Brentwood Church of Christ","AirtableRecord":"recYKMgIwk2ZcmFgD","place_id":"ChIJEWSMFVp7ZIgR21H7N9O_PmI","name":"Brentwood Church of Christ","website":"https://brentwoodchurch.com/","latitude":"36.0350933","longitude":"-86.81547290","address":"208 Granny White Pike, Brentwood, TN 37027, USA","phone_number":"+1 615-373-0511","last_updated":"2023-05-28 19:57"},"geometry":{"type":"Point","coordinates":[-86.815473,36.035093]}},{"type":"Feature","properties":{"church_name":"Brentwood Hills Church of Christ","AirtableRecord":"recDQfueWmzyzqyjA","place_id":"ChIJxRoIaCNlZIgRhlrdPEIhlZQ","name":"Brentwood Hills Church of Christ","website":"http://brentwoodhills.org/","latitude":"36.0629712","longitude":"-86.77259220","address":"5120 Franklin Pike, Nashville, TN 37220, USA","phone_number":"+1 615-832-2541","last_updated":"2023-05-28 19:57"},"geometry":{"type":"Point","coordinates":[-86.772592,36.062971]}},{"type":"Feature","properties":{"church_name":"Brentwood United Methodist Church","AirtableRecord":"recFj7CvaiKTslucc","place_id":"ChIJrVdv8Dx7ZIgRWLl839zOHCQ","name":"Brentwood United Methodist Church","website":"http://www.bumc.net/","latitude":"36.0280281","longitude":"-86.79373250","address":"309 Franklin Rd, Brentwood, TN 37027, USA","phone_number":"+1 615-373-3663","last_updated":"2023-05-28 19:57"},"geometry":{"type":"Point","coordinates":[-86.793733,36.028028]}},{"type":"Feature","properties":{"church_name":"Bridge Community Church","AirtableRecord":"recfyni7slWSDXBa1","place_id":"ChIJVe9ccRplZIgRadpRBah-coI","name":"Bridge Community Church","website":"http://www.bridgeforchrist.com/","latitude":"36.0749358","longitude":"-86.77216270","address":"4916 Franklin Pike, Nashville, TN 37220, USA","phone_number":"+1 615-678-8725","last_updated":"2023-05-28 20:03"},"geometry":{"type":"Point","coordinates":[-86.772163,36.074936]}},{"type":"Feature","properties":{"church_name":"Bridges Nashville","AirtableRecord":"rec2FeKAypz2b8if2","place_id":"ChIJM5Xi5GdmZIgRGn4UjPyH2kM","name":"Bridges Nashville","website":"https://bridgesnashville.com/","latitude":"36.1538350","longitude":"-86.77226800","address":"618 4th Ave S, Nashville, TN 37210, USA","phone_number":"+1 615-436-2378","last_updated":"2023-05-28 19:57"},"geometry":{"type":"Point","coordinates":[-86.772268,36.153835]}},{"type":"Feature","properties":{"church_name":"Broadmoor Baptist Church","AirtableRecord":"recHj8ZFKelWHLxAb","place_id":"ChIJezYo37FCZIgRkRIUtbTsNZc","name":"Broadmoor Baptist Church","website":"https://www.broadmoornashville.com/","latitude":"36.2295569","longitude":"-86.73532470","address":"518 Broadmoor Dr, Nashville, TN 37216, USA","phone_number":"+1 615-262-1631","last_updated":"2023-05-28 20:03"},"geometry":{"type":"Point","coordinates":[-86.735325,36.229557]}},{"type":"Feature","properties":{"church_name":"Brook Hollow Baptist Church","AirtableRecord":"recJOB2e49TbRuozr","place_id":"ChIJ-Xq3kRRiZIgRBJFDKoUN0vU","name":"Brook Hollow Baptist Church","website":"http://www.brookhollow.net/","latitude":"36.1163655","longitude":"-86.88671810","address":"678 Brk Holw Rd, Nashville, TN 37205, USA","phone_number":"+1 615-352-1295","last_updated":"2023-05-28 21:21"},"geometry":{"type":"Point","coordinates":[-86.886718,36.116366]}},{"type":"Feature","properties":{"church_name":"Brookmeade Congregational UCC","AirtableRecord":"recYr588EKeR7B9dJ","place_id":"ChIJv-0l1z5iZIgRW9sweINzC5c","name":"Brookmeade Congregational United Church of Christ","website":"https://brookmeadeucc.org/","latitude":"36.1178919","longitude":"-86.87794620","address":"700 Bresslyn Rd, Nashville, TN 37205, USA","phone_number":"+1 615-352-4702","last_updated":"2023-05-28 21:21"},"geometry":{"type":"Point","coordinates":[-86.877946,36.117892]}},{"type":"Feature","properties":{"church_name":"Brookside Church Of Christ","AirtableRecord":"recNLdJOZq5KqiSCb","place_id":"ChIJvQPpE3FvZIgRNC86Fcgfncc","name":"Brookside Church of Christ","website":"https://www.facebook.com/Brookside-Church-of-Christ-107501301302493","latitude":"36.0589672","longitude":"-86.70852210","address":"335 Tusculum Rd, Nashville, TN 37211, USA","phone_number":"+1 615-794-7021","last_updated":"2023-05-28 21:21"},"geometry":{"type":"Point","coordinates":[-86.708522,36.058967]}},{"type":"Feature","properties":{"church_name":"Brush Hill Church (Cumberland Presbyterian)","AirtableRecord":"recQzzvaeL0EL21zm","place_id":"ChIJw5uStZxCZIgRQHYC-bPyFnU","name":"Brush Hill Cumberland Presbyterian","website":"http://brushhillchurch.org/","latitude":"36.2217667","longitude":"-86.71195340","address":"3705 Brush Hill Rd, Nashville, TN 37216, USA","phone_number":"+1 615-227-2504","last_updated":"2023-05-28 21:21"},"geometry":{"type":"Point","coordinates":[-86.711953,36.221767]}},{"type":"Feature","properties":{"church_name":"Buena Vista Church of Christ","AirtableRecord":"rectJbcb6Wtg1c6Vf","place_id":"ChIJnc12GUtnZIgR7Daycz6HEBk","name":"Buena Vista Church of Christ","website":"https://www.buenavistachurchofc.com/","latitude":"36.2033457","longitude":"-86.82056050","address":"2520 Buena Vista Pike, Nashville, TN 37218, USA","phone_number":"+1 615-256-7331","last_updated":"2023-05-28 21:21"},"geometry":{"type":"Point","coordinates":[-86.82056,36.203346]}},{"type":"Feature","properties":{"church_name":"Calvary Baptist Church","AirtableRecord":"rec0MMmAyuGYyuSUq","place_id":"ChIJQa1XIs9mZIgRsfe1Ow34iqk","name":"Mt. Calvary Missionary Baptist Church","website":"https://www.mtcalvarymadisonchurch.org/","latitude":"36.1624181","longitude":"-86.81398770","address":"2448 Herman St, Nashville, TN 37208, USA","phone_number":"+1 615-329-1063","last_updated":"2023-05-28 21:21"},"geometry":{"type":"Point","coordinates":[-86.813988,36.162418]}},{"type":"Feature","properties":{"church_name":"Calvary Chapel Long Hollow","AirtableRecord":"recLfs9qASK17Vepv","place_id":"ChIJ-yAlzj5EZIgRSU6NNcOlN3o","name":"Calvary Chapel at Long Hollow","website":"http://www.cclonghollow.com/","latitude":"36.3387480","longitude":"-86.68021800","address":"1001 Willis Branch Rd, Goodlettsville, TN 37072, USA","phone_number":"+1 615-851-3088","last_updated":"2023-05-28 21:21"},"geometry":{"type":"Point","coordinates":[-86.680218,36.338748]}},{"type":"Feature","properties":{"church_name":"Calvary Church - Korean American","AirtableRecord":"recBQDYfWj3zsHH20","place_id":"ChIJxW4qCnVuZIgRgE6_0FqpOZc","name":"Calvary Church-Korean American","latitude":"36.0680941","longitude":"-86.66412960","address":"630 Richards Rd, Antioch, TN 37013, USA","last_updated":"2023-05-28 21:21"},"geometry":{"type":"Point","coordinates":[-86.66413,36.068094]}},{"type":"Feature","properties":{"church_name":"Calvary Pentecostal Church","AirtableRecord":"recTeuasM2hTH5Elo","place_id":"ChIJC_s0w_NcZIgRHht5dFC2P6E","name":"Calvary Pentecostal Church","latitude":"36.2800945","longitude":"-86.77535320","address":"1390 Old Hickory Blvd, Nashville, TN 37207, USA","last_updated":"2023-05-28 21:21"},"geometry":{"type":"Point","coordinates":[-86.775353,36.280094]}},{"type":"Feature","properties":{"church_name":"Calvary United Methodist Church","AirtableRecord":"recZsCTcVznqvaEDn","place_id":"ChIJlYHph3ZkZIgRoLi3zwn1NBQ","name":"Calvary United Methodist Church","website":"http://www.calvaryumc.com/","latitude":"36.1103586","longitude":"-86.81246430","address":"3701 Hillsboro Pike, Nashville, TN 37215, USA","phone_number":"+1 615-297-7562","last_updated":"2023-05-28 21:21"},"geometry":{"type":"Point","coordinates":[-86.812464,36.110359]}},{"type":"Feature","properties":{"church_name":"Campbell Road Church Of Christ","AirtableRecord":"recZ5u5tbNnAVX9S8","place_id":"ChIJu0rKjSpuZIgRHyvkPnOooxU","name":"Bell Road Church of Christ","latitude":"36.0447218","longitude":"-86.69923110","address":"1608 Bell Rd, Nashville, TN 37211, USA","phone_number":"+1 615-833-4444","last_updated":"2023-05-28 21:20"},"geometry":{"type":"Point","coordinates":[-86.699231,36.044722]}},{"type":"Feature","properties":{"church_name":"Cane Ridge Free Will Baptist Church","AirtableRecord":"recKW1LIcZKCwWWfm","place_id":"ChIJjViYl4dxZIgR6Z9rfJZq0B0","name":"Cane Ridge Free Will Baptist Church","website":"http://www.caneridgefwb.org/","latitude":"36.0085974","longitude":"-86.66388460","address":"13984 Old Hickory Blvd, Antioch, TN 37013, USA","phone_number":"+1 615-941-1575","last_updated":"2023-05-28 21:21"},"geometry":{"type":"Point","coordinates":[-86.663885,36.008597]}},{"type":"Feature","properties":{"church_name":"Capers Memorial CME Church","AirtableRecord":"reclgnlJt7pco8r89","place_id":"ChIJBaX_PuxmZIgRhMzH3zfrbKg","name":"Capers Memorial CME Church","latitude":"36.1593139","longitude":"-86.79504420","address":"319 15th Ave N, Nashville, TN 37203, USA","phone_number":"+1 615-329-2082","last_updated":"2023-05-28 21:21"},"geometry":{"type":"Point","coordinates":[-86.795044,36.159314]}},{"type":"Feature","properties":{"church_name":"Cathedral of Praise","AirtableRecord":"recPvCNo68k4oLg8S","place_id":"ChIJdxx2OKdgZIgRsUqdAhpxf8I","name":"Cathedral of Praise Inc","website":"http://www.cathedralpraise.org/","latitude":"36.2196175","longitude":"-86.83629250","address":"4300 Clarksville Pike, Nashville, TN 37218, USA","phone_number":"+1 615-876-8740","last_updated":"2023-05-28 21:21"},"geometry":{"type":"Point","coordinates":[-86.836292,36.219617]}},{"type":"Feature","properties":{"church_name":"Cathedral of the Incarnation","AirtableRecord":"recIq5koWHHc7VKlk","place_id":"ChIJncF-A75mZIgRD_Me-uI1gCs","name":"Cathedral of the Incarnation","website":"http://cathedralnashville.org/","latitude":"36.1507870","longitude":"-86.79966500","address":"2015 West End Ave, Nashville, TN 37203, USA","phone_number":"+1 615-327-2330","last_updated":"2023-05-28 21:21"},"geometry":{"type":"Point","coordinates":[-86.799665,36.150787]}},{"type":"Feature","properties":{"church_name":"Celebrate Life Community Church","AirtableRecord":"recC5lbPemDKPvpdc","place_id":"ChIJJWtt_qxDZIgRJrkNgDrCa5g","name":"Celebrate Life Community Church","latitude":"36.2635439","longitude":"-86.69344590","address":"801 E Old Hickory Blvd #191, Madison, TN 37115, USA","phone_number":"+1 615-865-7255","last_updated":"2023-05-28 21:21"},"geometry":{"type":"Point","coordinates":[-86.693446,36.263544]}},{"type":"Feature","properties":{"church_name":"Central Pike Church of Christ","AirtableRecord":"rec4wIExuyLUl9S4k","place_id":"ChIJ444mLNVqZIgRH21GBo5eK24","name":"Central Pike Church of Christ","website":"http://centralpikechurchofchrist.org/","latitude":"36.1734896","longitude":"-86.58125350","address":"4240 Central Pike, Hermitage, TN 37076, USA","phone_number":"+1 615-883-2696","last_updated":"2023-05-28 21:21"},"geometry":{"type":"Point","coordinates":[-86.581254,36.17349]}},{"type":"Feature","properties":{"church_name":"Charlotte Avenue Church of Christ","AirtableRecord":"reckop5kqbOzlRtnw","place_id":"ChIJiyrTKnZhZIgRu189h84ixcM","name":"Charlotte Heights Church of Christ","website":"https://charlotteheights.org/","latitude":"36.1320698","longitude":"-86.89318330","address":"6833 Old Charlotte Pike, Nashville, TN 37209, USA","phone_number":"+1 615-356-4367","last_updated":"2023-05-28 21:21"},"geometry":{"type":"Point","coordinates":[-86.893183,36.13207]}},{"type":"Feature","properties":{"church_name":"Charlotte Road Baptist Church","AirtableRecord":"reczPSEdXuEMorPYq","place_id":"ChIJwQYV7LyJZIgRyfNqbVV_4-o","name":"CRBC Nashville","website":"http://www.crbcnashville.org/","latitude":"36.1112149","longitude":"-86.93043110","address":"7511 Charlotte Pike, Nashville, TN 37209, USA","phone_number":"+1 615-356-5810","last_updated":"2023-05-28 21:21"},"geometry":{"type":"Point","coordinates":[-86.930431,36.111215]}},{"type":"Feature","properties":{"church_name":"Christ Christian Fellowship Church","AirtableRecord":"recqDmuzDWNltdgS4","place_id":"ChIJa1lwVBpuZIgRovLyZjIkXIw","name":"Lighthouse Christian Fellowship","website":"http://lighthousenashville.org/","latitude":"36.0030520","longitude":"-86.62729250","address":"210 Battle Rd, Antioch, TN 37013, USA","phone_number":"+1 615-331-6241","last_updated":"2023-05-28 21:21"},"geometry":{"type":"Point","coordinates":[-86.627292,36.003052]}},{"type":"Feature","properties":{"church_name":"Christ Church","AirtableRecord":"recDi34TRKWRkPymH","place_id":"ChIJzRxwufVmZIgRq4_Qvk1Ifw8","name":"Christ Church Cathedral [ERROR]","website":"http://www.christchurchnashville.org/","latitude":"36.1588225","longitude":"-86.78321180","address":"900 Broadway, Nashville, TN 37203, USA","phone_number":"+1 615-255-7729","last_updated":"2023-05-28 21:21"},"geometry":{"type":"Point","coordinates":[-86.783212,36.158822]}},{"type":"Feature","properties":{"church_name":"Christ Church Cathedral","default_website":"http://www.christcathedral.org/","AirtableRecord":"rec3YhUsizbqiQHPx","place_id":"ChIJzRxwufVmZIgRq4_Qvk1Ifw8","name":"Christ Church Cathedral","website":"http://christcathedral.org/","latitude":"36.1588225","longitude":"-86.78321180","address":"900 Broadway, Nashville, TN 37203, USA","phone_number":"+1 615-255-7729","last_updated":"2023-05-28 21:21"},"geometry":{"type":"Point","coordinates":[-86.783212,36.158822]}},{"type":"Feature","properties":{"church_name":"Christ Church Nashville","AirtableRecord":"recx3zkygp3sIYC6Z","place_id":"ChIJ1fE90x1wZIgRVMqIrvztJJs","name":"Christ Church Nashville","website":"http://www.christchurchnashville.org/","latitude":"36.0419227","longitude":"-86.72789570","address":"15354 Old Hickory Blvd, Nashville, TN 37211, USA","phone_number":"+1 615-834-6171","last_updated":"2023-05-28 21:21"},"geometry":{"type":"Point","coordinates":[-86.727896,36.041923]}},{"type":"Feature","properties":{"church_name":"Christ Church Of The Nazarene","AirtableRecord":"recaPJKTDLP28wbGA","place_id":"ChIJ1zFsvLBtZIgR8bzOb2G34E0","name":"Bell Road Church of the Nazarene","website":"https://www.facebook.com/ChristChurchOfTheNazarene/","latitude":"36.0755779","longitude":"-86.63448890","address":"414 Bell Rd, Nashville, TN 37217, USA","phone_number":"+1 615-361-7133","last_updated":"2023-05-28 21:20"},"geometry":{"type":"Point","coordinates":[-86.634489,36.075578]}},{"type":"Feature","properties":{"church_name":"Christ Church Pentecostal","AirtableRecord":"recXGpWbxeZDLVv0s","place_id":"ChIJJT2eUilnZIgRzgtFodv1CWQ","name":"Church of God in Christ","latitude":"36.1829290","longitude":"-86.81563640","address":"2006 24th Ave N, Nashville, TN 37208, USA","last_updated":"2023-05-28 21:21"},"geometry":{"type":"Point","coordinates":[-86.815636,36.182929]}},{"type":"Feature","properties":{"church_name":"Christ Community Church","default_website":"http://christcommunity.org/","AirtableRecord":"reccVrWXhpsn3miKy","place_id":"ChIJJzcpbbdnZIgRtDG4CahPscE","name":"Community Christian Church","website":"http://cccdisciples.com/","latitude":"36.1857213","longitude":"-86.76513120","address":"828 Lischey Ave, Nashville, TN 37207, USA","phone_number":"+1 615-647-7575","last_updated":"2023-05-28 21:21"},"geometry":{"type":"Point","coordinates":[-86.765131,36.185721]}},{"type":"Feature","properties":{"church_name":"Christ for The Nations Church","AirtableRecord":"recW9KI2KMTlsokeC","place_id":"ChIJW2hg9m5lZIgRfy7GjQj-wKA","name":"Christ for the Nations Church","website":"https://www.thenations.church/","latitude":"36.1251068","longitude":"-86.71263190","address":"308 E Thompson Ln, Nashville, TN 37217, USA","phone_number":"+1 615-200-0034","last_updated":"2023-05-28 21:21"},"geometry":{"type":"Point","coordinates":[-86.712632,36.125107]}},{"type":"Feature","properties":{"church_name":"Christ Lutheran Church","AirtableRecord":"recCAJ8QGyf80J5a9","place_id":"ChIJ0e0PArZvZIgRKdcM-oJ9LHo","name":"Christ Lutheran Church - ELCA","website":"https://www.clcnashville.org/","latitude":"36.0678503","longitude":"-86.70725650","address":"299 Haywood Ln, Nashville, TN 37211, USA","phone_number":"+1 615-833-0476","last_updated":"2023-05-28 21:21"},"geometry":{"type":"Point","coordinates":[-86.707256,36.06785]}},{"type":"Feature","properties":{"church_name":"Christ Only Church","AirtableRecord":"recpE6lt7a4YfLozj","place_id":"ChIJZ5_gV1VtZIgRBpdD89RB77w","name":"CHRIST ONLY CHURCH","latitude":"36.0407476","longitude":"-86.58105820","address":"4121 Pepperwood Dr, Antioch, TN 37013, USA","phone_number":"+1 615-887-0298","last_updated":"2023-05-28 21:21"},"geometry":{"type":"Point","coordinates":[-86.581058,36.040748]}},{"type":"Feature","properties":{"church_name":"Christ Presbyterian Church","default_website":"http://www.christpres.org/","AirtableRecord":"recyDlxj59XA764l5","place_id":"ChIJ0UV30jR9ZIgRNU_xhQ-PEKU","name":"Christ Presbyterian Church","website":"http://christpres.org/","latitude":"36.0491846","longitude":"-86.87898130","address":"2323 Old Hickory Blvd, Nashville, TN 37215, USA","phone_number":"+1 615-373-2311","last_updated":"2023-05-28 21:21"},"geometry":{"type":"Point","coordinates":[-86.878981,36.049185]}},{"type":"Feature","properties":{"church_name":"Christ the King Catholic Church","default_website":"http://www.ctk.org/","AirtableRecord":"recy0TwsHpZ5jhvwb","place_id":"ChIJ6y9XCzxkZIgRxmC1HLySHKo","name":"Christ the King Catholic Church","website":"http://www.ctk.org/","latitude":"36.1189173","longitude":"-86.79710900","address":"3001 Belmont Blvd, Nashville, TN 37212, USA","phone_number":"+1 615-292-2884","last_updated":"2023-05-28 21:21"},"geometry":{"type":"Point","coordinates":[-86.797109,36.118917]}},{"type":"Feature","properties":{"church_name":"Christ's Glorious Tabernacle Church","AirtableRecord":"recTVNakGnJrfe2he","place_id":"ChIJ8YkvF9xnZIgRjgHgd39QLcU","name":"Tabernacle of Glory","website":"http://www.tabernacleofglory.com/","latitude":"36.1931485","longitude":"-86.74750710","address":"945 Douglas Ave, Nashville, TN 37206, USA","phone_number":"+1 615-297-4562","last_updated":"2023-05-28 21:21"},"geometry":{"type":"Point","coordinates":[-86.747507,36.193148]}},{"type":"Feature","properties":{"church_name":"Christian Life Church","AirtableRecord":"recJxYNt7VdoFYHAp","place_id":"ChIJPVdORcpxZIgR2f__KTV9Ub4","name":"Nashville Life Church","website":"http://www.nashvillelifechurch.com/","latitude":"36.1145983","longitude":"-86.74754170","address":"2639 Nolensville Pk, Nashville, TN 37211, USA","phone_number":"+1 615-838-4117","last_updated":"2023-05-28 21:21"},"geometry":{"type":"Point","coordinates":[-86.747542,36.114598]}},{"type":"Feature","properties":{"church_name":"Church In Nashville","AirtableRecord":"recgbOcGPvUHi69Tt","place_id":"ChIJ5e3CM5BmZIgRe__CYVzLaaM","name":"Belmont Church","website":"https://www.belmont.org/","latitude":"36.1469688","longitude":"-86.79215240","address":"68 Music Square E, Nashville, TN 37203, USA","phone_number":"+1 615-256-2123","last_updated":"2023-05-28 21:20"},"geometry":{"type":"Point","coordinates":[-86.792152,36.146969]}},{"type":"Feature","properties":{"church_name":"Church Inc Faith","AirtableRecord":"rechMGUsq9oSuJLtO","place_id":"ChIJX1sqBgxoZIgRwKQ9RvwKWHU","name":"Faith Church","website":"http://www.victoriousliving.org/","latitude":"36.2018340","longitude":"-86.73652290","address":"1208 Litton Ave, Nashville, TN 37216, USA","phone_number":"+1 615-226-2255","last_updated":"2023-05-28 21:21"},"geometry":{"type":"Point","coordinates":[-86.736523,36.201834]}},{"type":"Feature","properties":{"church_name":"Church of Christ","AirtableRecord":"recxJSz1rbj4E0j9D","place_id":"ChIJnwBLvOdmZIgRemJoLHWt5k0","name":"Church of Christ at Jackson Street","website":"http://jacksonst.org/","latitude":"36.1680595","longitude":"-86.80051030","address":"1408 Jackson St, Nashville, TN 37208, USA","phone_number":"+1 615-321-0530","last_updated":"2023-05-28 21:21"},"geometry":{"type":"Point","coordinates":[-86.80051,36.168059]}},{"type":"Feature","properties":{"church_name":"Church of Christ at Bordeaux","AirtableRecord":"reckcn5LqRiNuDvz9","place_id":"ChIJz0jWX8RgZIgRxyUUnKTxHYU","name":"Church of Christ In Bordeaux","latitude":"36.1956806","longitude":"-86.84045760","address":"3715 John Mallette Dr, Nashville, TN 37218, USA","phone_number":"+1 615-454-5174","last_updated":"2023-05-28 21:21"},"geometry":{"type":"Point","coordinates":[-86.840458,36.195681]}},{"type":"Feature","properties":{"church_name":"Church of Christ at Broadmoor","AirtableRecord":"recmNVZ49nPyESKj9","place_id":"ChIJ9ZjiN0VdZIgR5F1xsvgtam8","name":"Church of Christ At Broadmoor","website":"https://broadmoorchurch.com/","latitude":"36.2305441","longitude":"-86.75162570","address":"264 Broadmoor Dr, Nashville, TN 37207, USA","phone_number":"+1 615-228-0449","last_updated":"2023-05-28 21:21"},"geometry":{"type":"Point","coordinates":[-86.751626,36.230544]}},{"type":"Feature","properties":{"church_name":"Church of Christ at Kings Lane","AirtableRecord":"rechPZXCs6o4gqvjI","place_id":"ChIJNVWs0adgZIgRR9AMCw4Kli0","name":"Church of Christ at Kings Lane","website":"http://www.churchofchristatkingslane.com/","latitude":"36.2194043","longitude":"-86.83262060","address":"3274 Kings Ln, Nashville, TN 37218, USA","phone_number":"+1 615-876-1700","last_updated":"2023-05-28 21:21"},"geometry":{"type":"Point","coordinates":[-86.832621,36.219404]}},{"type":"Feature","properties":{"church_name":"Church of Christ at Lawrence Avenue","default_website":"http://lawrenceavehere4u.com/","AirtableRecord":"recHgfj7Ef5d0f3oD","place_id":"ChIJqSulbStkZIgRMtgIgTSAF5I","name":"Lawrence Avenue Church-Christ","website":"http://lawrenceavehere4u.com/missions.html","latitude":"36.1289605","longitude":"-86.78362690","address":"904 Lawrence Ave, Nashville, TN 37204, USA","phone_number":"+1 615-292-7181","last_updated":"2023-05-28 21:21"},"geometry":{"type":"Point","coordinates":[-86.783627,36.12896]}},{"type":"Feature","properties":{"church_name":"Church of Christ at Trinity Lane","default_website":"http://www.trinitylane.org/","AirtableRecord":"rec85JeTjFRMfUh7R","place_id":"ChIJrT8SMuxnZIgRMwiOr2qyEZA","name":"Trinity Lane Church of Christ","website":"http://www.trinitylane.org/","latitude":"36.2053425","longitude":"-86.75732880","address":"501 E Trinity Ln, Nashville, TN 37207, USA","phone_number":"+1 615-228-0522","last_updated":"2023-05-28 21:21"},"geometry":{"type":"Point","coordinates":[-86.757329,36.205343]}},{"type":"Feature","properties":{"church_name":"Church of Christ South Town","AirtableRecord":"recSEUmiBJiuPop6z","place_id":"ChIJW_SFbC5sZIgRherqMMFPEks","name":"Church of Christ South Town","latitude":"36.0925432","longitude":"-86.65263360","address":"2131 Murfreesboro Pike # L1, Nashville, TN 37217, USA","phone_number":"+1 615-915-2994","last_updated":"2023-05-28 21:21"},"geometry":{"type":"Point","coordinates":[-86.652634,36.092543]}},{"type":"Feature","properties":{"church_name":"Church Of God","AirtableRecord":"recLZ0Yw01FeQd3DD","place_id":"ChIJk5axIudmZIgRQoQww3aqpCE","name":"Meharry Church of God","latitude":"36.1704894","longitude":"-86.80008690","address":"1212 Meharry Blvd, Nashville, TN 37208, USA","phone_number":"+1 615-329-0282","last_updated":"2023-05-28 21:21"},"geometry":{"type":"Point","coordinates":[-86.800087,36.170489]}},{"type":"Feature","properties":{"church_name":"Church of Grace Village","default_website":"https://www.thechurchofgracevillage.com/","AirtableRecord":"recNSpuQyg5F4NUdz","place_id":"ChIJ77o2mKd6ZIgRL9PswvaX7Kk","name":"The Church of Grace Village","website":"http://www.thechurchofgracevillage.com/","latitude":"36.0326828","longitude":"-86.74307420","address":"5866 Edmondson Pike, Nashville, TN 37211, USA","phone_number":"+1 615-810-9845","last_updated":"2023-05-28 21:21"},"geometry":{"type":"Point","coordinates":[-86.743074,36.032683]}},{"type":"Feature","properties":{"church_name":"Church Of Jesus Christ Of LDS","AirtableRecord":"rec3H7Qz6PuXuLxFv","place_id":"ChIJ3f0pmhFoZIgR6je4E8PV3VE","name":"The Church of Jesus Christ of Latter-day Saints","website":"https://local.churchofjesuschrist.org/en/us/tn/nashville/1240-mcgavock-pike?utm_source=Google&cid=yext_us_tn_60&y_source=1_MTQ1MTIxNDQtNzE1LWxvY2F0aW9uLndlYnNpdGU%3D","latitude":"36.2039300","longitude":"-86.72952900","address":"1240 McGavock Pk, Nashville, TN 37216, USA","phone_number":"+1 931-627-3993","last_updated":"2023-05-28 21:21"},"geometry":{"type":"Point","coordinates":[-86.729529,36.20393]}},{"type":"Feature","properties":{"church_name":"Church of the Advent Episcopal","default_website":"http://www.adventnashville.org/","AirtableRecord":"recdSi0qgc426ZAwI","place_id":"ChIJedBeaNV6ZIgRUB5PkD2YqgU","name":"Church of the Advent Episcopal","website":"https://churchoftheadventepiscopal.org/","latitude":"36.0447550","longitude":"-86.78264290","address":"5501 Franklin Pike, Nashville, TN 37220, USA","phone_number":"+1 615-373-5630","last_updated":"2023-05-28 21:21"},"geometry":{"type":"Point","coordinates":[-86.782643,36.044755]}},{"type":"Feature","properties":{"church_name":"Church of the City","default_website":"http://www.thepeopleschurch.org/","AirtableRecord":"recaut8LadWRMdyli","place_id":"ChIJH-2CtdJnZIgRU-WXn3oHbnY","name":"Church of the City - Downtown","website":"http://churchofthecity.com/downtown","latitude":"36.1542756","longitude":"-86.77322850","address":"601 4th Ave S, Nashville, TN 37210, USA","last_updated":"2023-05-28 21:21"},"geometry":{"type":"Point","coordinates":[-86.773229,36.154276]}},{"type":"Feature","properties":{"church_name":"Church of the City Franklin","AirtableRecord":"rec5AZyiioxwwHjXe","place_id":"ChIJp8m80x1_ZIgRtn5TxRx-WUY","name":"Church of the City","website":"http://www.cotc.com/","latitude":"35.9146701","longitude":"-86.84753780","address":"828 Murfreesboro Rd, Franklin, TN 37064, USA","phone_number":"+1 615-465-5000","last_updated":"2023-05-28 21:21"},"geometry":{"type":"Point","coordinates":[-86.847538,35.91467]}},{"type":"Feature","properties":{"church_name":"Church of the Epiphany","AirtableRecord":"reczmdI4QbPyyRGRo","place_id":"ChIJc6fRgFgfZIgRwwV5x8AzJz4","name":"Episcopal Church Of The Epiphany","website":"http://www.epiphanytn.com/","latitude":"36.2065057","longitude":"-86.32500720","address":"1500 Hickory Ridge Rd, Lebanon, TN 37087, USA","phone_number":"+1 615-444-7336","last_updated":"2023-05-28 21:21"},"geometry":{"type":"Point","coordinates":[-86.325007,36.206506]}},{"type":"Feature","properties":{"church_name":"Church of the Good Shepherd","AirtableRecord":"rec22sPrqBjyL0V0y","place_id":"ChIJJ1uF9cKHZIgRyQDxG9l2zzQ","name":"Good Shepherd Nashville","website":"http://goodshepherdnashville.org/","latitude":"36.0625857","longitude":"-86.94079930","address":"7501 Old Harding Pike, Nashville, TN 37221, USA","last_updated":"2023-05-28 21:21"},"geometry":{"type":"Point","coordinates":[-86.940799,36.062586]}},{"type":"Feature","properties":{"church_name":"Church of the Holy Spirit","AirtableRecord":"rectrPMsYQMZhm90n","place_id":"ChIJmf-Dk9tvZIgR-c-vtuWvN7A","name":"Nashville Korean Episcopal Church of the Holy Spirit","website":"https://sungshin.us/","latitude":"36.0515370","longitude":"-86.71551200","address":"5325 Nolensville Pk, Nashville, TN 37211, USA","phone_number":"+1 615-333-9979","last_updated":"2023-05-28 21:21"},"geometry":{"type":"Point","coordinates":[-86.715512,36.051537]}},{"type":"Feature","properties":{"church_name":"Church of the Holy Trinity","default_website":"http://chtnashville.com/","AirtableRecord":"recfXoijFidhBLQjf","place_id":"ChIJ9_uSF2dmZIgRW0IAnyepyKA","name":"Church of the Holy Trinity","website":"http://chtnashville.com/","latitude":"36.1528470","longitude":"-86.77551080","address":"615 6th Ave S, Nashville, TN 37203, USA","phone_number":"+1 615-256-6359","last_updated":"2023-05-28 21:21"},"geometry":{"type":"Point","coordinates":[-86.775511,36.152847]}},{"type":"Feature","properties":{"church_name":"Church of the Holy Trinity Episcopal","AirtableRecord":"recExmjID1l3ALr7q","place_id":"ChIJ9_uSF2dmZIgRW0IAnyepyKA","name":"Church of the Holy Trinity","website":"http://chtnashville.com/","latitude":"36.1528470","longitude":"-86.77551080","address":"615 6th Ave S, Nashville, TN 37203, USA","phone_number":"+1 615-256-6359","last_updated":"2023-05-28 21:21"},"geometry":{"type":"Point","coordinates":[-86.775511,36.152847]}},{"type":"Feature","properties":{"church_name":"Church of the Living God","AirtableRecord":"recYh1RTgvHYTX3ca","place_id":"ChIJKz-uYm9hZIgRcWTwTWBatng","name":"The Living Word COGIC","website":"https://www.thelivingwordcogic.com/","latitude":"36.1456050","longitude":"-86.84913320","address":"5100 Wyoming Ave, Nashville, TN 37209, USA","phone_number":"+1 615-297-7437","last_updated":"2023-05-28 21:21"},"geometry":{"type":"Point","coordinates":[-86.849133,36.145605]}},{"type":"Feature","properties":{"church_name":"Church of the Living Water","AirtableRecord":"rec6mMmiaZxo0exoW","place_id":"ChIJOWmBK2BDZIgR6fJhyVg_CTQ","name":"Church Of The Living Water","website":"http://www.clwnashville.org/","latitude":"36.3046340","longitude":"-86.71917290","address":"731 Dickerson Rd, Goodlettsville, TN 37072, USA","phone_number":"+1 615-948-2679","last_updated":"2023-05-28 21:21"},"geometry":{"type":"Point","coordinates":[-86.719173,36.304634]}},{"type":"Feature","properties":{"church_name":"Church of the Messiah","default_website":"http://cotmnashville.org/church-leadership/","AirtableRecord":"recwkUsVmSxDdHq8K","place_id":"ChIJ77ooZ2tmZIgR2IhQ5TnIMpc","name":"Church of the Messiah","website":"http://cotmnashville.org/","latitude":"36.1492740","longitude":"-86.76336060","address":"88 Lafayette St, Nashville, TN 37210, USA","phone_number":"+1 615-255-3713","last_updated":"2023-05-28 21:21"},"geometry":{"type":"Point","coordinates":[-86.763361,36.149274]}},{"type":"Feature","properties":{"church_name":"Church Of The Redeemer","default_website":"http://www.redeemer-nashville.net/","AirtableRecord":"recOze5TCN28EITW3","place_id":"ChIJKc51DLNlZIgRhuZIcblN4gg","name":"Church of the Redeemer","website":"https://www.redeemer-nashville.net/","latitude":"36.1046182","longitude":"-86.77938750","address":"920 Caldwell Ln, Nashville, TN 37204, USA","phone_number":"+1 615-383-9888","last_updated":"2023-05-28 21:21"},"geometry":{"type":"Point","coordinates":[-86.779387,36.104618]}},{"type":"Feature","properties":{"church_name":"Church Women United in Nashville","AirtableRecord":"rec9iBQpUqu3CAZWg","place_id":"ChIJ6c54l9VnZIgRi4hu69szVWY","name":"Unite Church Nashville","website":"https://unitechurchnashville.com/","latitude":"36.1900780","longitude":"-86.76488920","address":"1101 Stainback Ave, Nashville, TN 37207, USA","last_updated":"2023-05-28 21:21"},"geometry":{"type":"Point","coordinates":[-86.764889,36.190078]}},{"type":"Feature","properties":{"church_name":"Church-Jesus Christ Lds","AirtableRecord":"rec2huzT0iYfxM8HZ","place_id":"ChIJt3cLiHhkZIgRPXYGgrm34s4","name":"The Church of Jesus Christ of Latter-day Saints","website":"https://local.churchofjesuschrist.org/en/us/tn/nashville/4304-hillsboro-pike?utm_source=Google&cid=yext_us_tn_68&y_source=1_MTQ1MTIzMDgtNzE1LWxvY2F0aW9uLndlYnNpdGU%3D","latitude":"36.0983756","longitude":"-86.82107590","address":"4304 Hillsboro Pike, Nashville, TN 37215, USA","phone_number":"+1 615-516-5957","last_updated":"2023-05-28 21:21"},"geometry":{"type":"Point","coordinates":[-86.821076,36.098376]}},{"type":"Feature","properties":{"church_name":"Church-Living God Pillar-Grnd","AirtableRecord":"reccZEYghttkmuYgx","place_id":"ChIJKz-uYm9hZIgRcWTwTWBatng","name":"The Living Word COGIC","website":"https://www.thelivingwordcogic.com/","latitude":"36.1456050","longitude":"-86.84913320","address":"5100 Wyoming Ave, Nashville, TN 37209, USA","phone_number":"+1 615-297-7437","last_updated":"2023-05-28 21:21"},"geometry":{"type":"Point","coordinates":[-86.849133,36.145605]}},{"type":"Feature","properties":{"church_name":"CitiPoint Church Nashville","AirtableRecord":"recE1TkiAXinVlvn4","place_id":"ChIJj7tlajdwZIgRPIS3JAR8RJw","name":"Citipointe Church Nashville","website":"https://citipointechurch.com/citipointe-locations/nashville/","latitude":"36.0270165","longitude":"-86.70838310","address":"7533 Lords Chapel Dr, Nashville, TN 37211, USA","phone_number":"+1 615-331-0202","last_updated":"2023-05-28 21:21"},"geometry":{"type":"Point","coordinates":[-86.708383,36.027017]}},{"type":"Feature","properties":{"church_name":"City Church of East Nashville","default_website":"http://www.citychurcheast.org/","AirtableRecord":"recw8ooyij0V8tQfL","place_id":"ChIJQ00GMWloZIgRboTD6THRY0s","name":"City Church of East Nashville","website":"http://www.ccen.org/","latitude":"36.1752649","longitude":"-86.75787510","address":"805 Woodland St #330, Nashville, TN 37206, USA","phone_number":"+1 615-307-0176","last_updated":"2023-05-28 21:21"},"geometry":{"type":"Point","coordinates":[-86.757875,36.175265]}},{"type":"Feature","properties":{"church_name":"City Road Chapel United Methodist Church","default_website":"http://www.cityroadchapel.org/","AirtableRecord":"recQKUwuwCDv6FT4N","place_id":"ChIJx6xrh-NCZIgRkIUVF-2P448","name":"City Road Chapel United Methodist Church","website":"http://cityroadchapel.org/","latitude":"36.2557649","longitude":"-86.71423940","address":"701 Gallatin Pike S, Madison, TN 37115, USA","phone_number":"+1 615-868-1673","last_updated":"2023-05-28 21:21"},"geometry":{"type":"Point","coordinates":[-86.714239,36.255765]}},{"type":"Feature","properties":{"church_name":"Clark Memorial United Methodist Church","AirtableRecord":"recUQPmQMJRndqAsM","place_id":"ChIJUzEiAudmZIgROC0Ul_3SR88","name":"Clark Memorial United Methodist Church","website":"http://www.clarkumcnashville.org/","latitude":"36.1694213","longitude":"-86.79994130","address":"1014 14th Ave N, Nashville, TN 37208, USA","phone_number":"+1 615-329-4464","last_updated":"2023-05-28 21:21"},"geometry":{"type":"Point","coordinates":[-86.799941,36.169421]}},{"type":"Feature","properties":{"church_name":"Clarksville Highway Church of Christ","AirtableRecord":"recuHWiVtW4RceWtr","place_id":"ChIJ1VLbQFT2ZIgR3xreTVYYxHM","name":"Clarksville Highway Church","website":"http://www.clarksvillehwychurch.com/","latitude":"36.3501442","longitude":"-86.93954190","address":"5444 US-41 ALT, Joelton, TN 37080, USA","last_updated":"2023-05-28 21:21"},"geometry":{"type":"Point","coordinates":[-86.939542,36.350144]}},{"type":"Feature","properties":{"church_name":"Clearview Baptist Church","AirtableRecord":"receoqGL4oNQY32Dp","place_id":"ChIJp02u3ep9ZIgRVtKqH1x12oM","name":"Clearview Baptist Church","website":"https://www.clearview.org/","latitude":"35.9667571","longitude":"-86.84039720","address":"537 Franklin Rd Building A, Franklin, TN 37069, USA","phone_number":"+1 615-794-5488","last_updated":"2023-05-28 21:21"},"geometry":{"type":"Point","coordinates":[-86.840397,35.966757]}},{"type":"Feature","properties":{"church_name":"Cleveland Street Baptist Church","AirtableRecord":"rec4QCtS0xRQUY869","place_id":"ChIJXQUzF8hnZIgR0C1mh5CFsZA","name":"Cleveland Street Baptist Church","website":"https://www.clevelandstreetbaptistchurch.org/","latitude":"36.1858868","longitude":"-86.76143680","address":"608 Cleveland St, Nashville, TN 37207, USA","phone_number":"+1 615-227-1149","last_updated":"2023-05-28 21:21"},"geometry":{"type":"Point","coordinates":[-86.761437,36.185887]}},{"type":"Feature","properties":{"church_name":"Cofers Chapel Free Will Baptist","default_website":"http://coferschapel.org/","AirtableRecord":"recNA7LPgqdrKNS84","place_id":"ChIJ1RRHK7dlZIgR3j4jZf2Jj14","name":"Cofer's Chapel","website":"http://www.coferschapel.org/","latitude":"36.1059366","longitude":"-86.77369230","address":"3915 Franklin Pike, Nashville, TN 37204, USA","phone_number":"+1 615-298-9288","last_updated":"2023-05-28 21:21"},"geometry":{"type":"Point","coordinates":[-86.773692,36.105937]}},{"type":"Feature","properties":{"church_name":"Community Baptist Church","AirtableRecord":"recLJTa4FCAdSFP2B","place_id":"ChIJv4G1It9cZIgR0YQSVbKIIfY","name":"Community Baptist Church","website":"http://www.cbcnash.org/","latitude":"36.2647344","longitude":"-86.75777740","address":"3838 Dickerson Pike, Nashville, TN 37207, USA","phone_number":"+1 615-612-3446","last_updated":"2023-05-28 21:21"},"geometry":{"type":"Point","coordinates":[-86.757777,36.264734]}},{"type":"Feature","properties":{"church_name":"Community Bible Church","default_website":"http://www.cbcnashville.org/","AirtableRecord":"recPewdZefvIJwh5f","place_id":"ChIJMWoGp596ZIgRaVDkRyOlQnY","name":"Community Bible Church","website":"http://cbcnashville.org/","latitude":"36.0215797","longitude":"-86.74382020","address":"6005 Edmondson Pike, Nashville, TN 37211, USA","phone_number":"+1 615-833-9148","last_updated":"2023-05-28 21:21"},"geometry":{"type":"Point","coordinates":[-86.74382,36.02158]}},{"type":"Feature","properties":{"church_name":"Community Christian Church","default_website":"https://www.communitychristian.org/","AirtableRecord":"recMMKmFcsYW1A4yC","place_id":"ChIJJzcpbbdnZIgRtDG4CahPscE","name":"Community Christian Church","website":"http://cccdisciples.com/","latitude":"36.1857213","longitude":"-86.76513120","address":"828 Lischey Ave, Nashville, TN 37207, USA","phone_number":"+1 615-647-7575","last_updated":"2023-05-28 21:21"},"geometry":{"type":"Point","coordinates":[-86.765131,36.185721]}},{"type":"Feature","properties":{"church_name":"Concord Church of the Nazarene","AirtableRecord":"recnVSYEL0Dx0z6KT","place_id":"ChIJ8QJhKARxZIgRNakD5uCVvkc","name":"Concord Community Church","website":"http://www.concordnaz.com/","latitude":"35.9940667","longitude":"-86.69517520","address":"9826 Concord Rd, Brentwood, TN 37027, USA","phone_number":"+1 615-776-3990","last_updated":"2023-05-28 21:21"},"geometry":{"type":"Point","coordinates":[-86.695175,35.994067]}},{"type":"Feature","properties":{"church_name":"Concord Road Church Of Christ","AirtableRecord":"recmYWPwAPLDEjbUy","place_id":"ChIJEabZ46x7ZIgRemJQedbB8Eg","name":"Concord Road Church of Christ","website":"https://concordroad.org/","latitude":"35.9952354","longitude":"-86.78314200","address":"8221 Concord Rd, Brentwood, TN 37027, USA","phone_number":"+1 615-373-4353","last_updated":"2023-05-28 21:21"},"geometry":{"type":"Point","coordinates":[-86.783142,35.995235]}},{"type":"Feature","properties":{"church_name":"Concord-Grandview Baptist Church","AirtableRecord":"recucRCTROYAaOHJd","place_id":"ChIJzaWHEglxZIgR-ScMF941dxM","name":"Concord Grandview Baptist Church","latitude":"35.9960078","longitude":"-86.68842200","address":"6820 Nolensville Pk, Brentwood, TN 37027, USA","last_updated":"2023-05-28 21:21"},"geometry":{"type":"Point","coordinates":[-86.688422,35.996008]}},{"type":"Feature","properties":{"church_name":"Concordia Lutheran Church","default_website":"http://concordianashville.com/","AirtableRecord":"recPiJPmU0vmi2zNp","place_id":"ChIJa4_R7lRhZIgRwhrZQEP5nus","name":"Concordia Lutheran Church-LCMS","website":"http://concordianashville.org/","latitude":"36.1378403","longitude":"-86.82355230","address":"3501 Central Ave, Nashville, TN 37205, USA","phone_number":"+1 615-292-0982","last_updated":"2023-05-28 21:21"},"geometry":{"type":"Point","coordinates":[-86.823552,36.13784]}},{"type":"Feature","properties":{"church_name":"Connect Church","AirtableRecord":"recRD3Nzs4GRcuSR2","place_id":"ChIJ0eWsYGBpZIgRu4nKjKPGzSs","name":"Connect Church | Downtown Campus","latitude":"36.1400588","longitude":"-86.73746200","address":"701 Murfreesboro Pike, Nashville, TN 37210, USA","last_updated":"2023-05-28 21:21"},"geometry":{"type":"Point","coordinates":[-86.737462,36.140059]}},{"type":"Feature","properties":{"church_name":"Connection Pointe Church","AirtableRecord":"rectPniqOxSKFklUj","place_id":"ChIJ1TCyb4plZIgRhTfE_lUFM2A","name":"Connection Pointe","website":"http://www.connectionpointe.com/","latitude":"36.0577573","longitude":"-86.74078800","address":"5240 Edmondson Pike, Nashville, TN 37211, USA","phone_number":"+1 615-732-5890","last_updated":"2023-05-28 21:21"},"geometry":{"type":"Point","coordinates":[-86.740788,36.057757]}},{"type":"Feature","properties":{"church_name":"Connection United Methodist Church","AirtableRecord":"recgkHwphNnrRum5I","place_id":"ChIJnwRk8tBrZIgR4AQct3hmzW0","name":"Connection United Methodist Church - Lebanon Pike Campus","website":"http://www.connectionumc.org/","latitude":"36.1689074","longitude":"-86.65883340","address":"2846 Lebanon Pike, Nashville, TN 37214, USA","phone_number":"+1 615-883-2321","last_updated":"2023-05-28 21:21"},"geometry":{"type":"Point","coordinates":[-86.658833,36.168907]}},{"type":"Feature","properties":{"church_name":"Connell Memorial United Methodist Church","AirtableRecord":"reczHT25EuRaynL4o","place_id":"ChIJHeNNd8BEZIgR-rdBDZk00xw","name":"Connell Memorial United Methodist Church","website":"http://www.connellumc.org/","latitude":"36.3247781","longitude":"-86.71031750","address":"113 Church St, Goodlettsville, TN 37072, USA","phone_number":"+1 615-859-5915","last_updated":"2023-05-28 21:21"},"geometry":{"type":"Point","coordinates":[-86.710318,36.324778]}},{"type":"Feature","properties":{"church_name":"Corinthian Baptist Church","AirtableRecord":"recwlllvcTikniPhk","place_id":"ChIJMU_laTRhZIgRqN7K7FkYKrY","name":"Corinthian Missionary Baptist Church","latitude":"36.1600980","longitude":"-86.82561030","address":"819 33rd Ave N, Nashville, TN 37209, USA","phone_number":"+1 615-977-6855","last_updated":"2023-05-28 21:21"},"geometry":{"type":"Point","coordinates":[-86.82561,36.160098]}},{"type":"Feature","properties":{"church_name":"Corinthian Missionary Baptist Church","AirtableRecord":"recVU7UF4watpfCAg","place_id":"ChIJMU_laTRhZIgRqN7K7FkYKrY","name":"Corinthian Missionary Baptist Church","latitude":"36.1600980","longitude":"-86.82561030","address":"819 33rd Ave N, Nashville, TN 37209, USA","phone_number":"+1 615-977-6855","last_updated":"2023-05-28 21:21"},"geometry":{"type":"Point","coordinates":[-86.82561,36.160098]}},{"type":"Feature","properties":{"church_name":"Cornerstone Nashville","AirtableRecord":"reczkLio5kTEWHUuG","place_id":"ChIJEZaZ5yhDZIgR2xpjGb9hNc0","name":"Cornerstone Nashville","website":"http://www.cornerstonenashville.org/","latitude":"36.2656645","longitude":"-86.73367510","address":"726 W Old Hickory Blvd, Madison, TN 37115, USA","phone_number":"+1 615-865-6655","last_updated":"2023-05-28 21:21"},"geometry":{"type":"Point","coordinates":[-86.733675,36.265664]}},{"type":"Feature","properties":{"church_name":"Cornerstone Presbyterian Church (Franklin, TN)","AirtableRecord":"rec9IgIW24V9AwTRK","place_id":"ChIJK-A5WVF-ZIgRQcNsZNB9CG0","name":"Cornerstone Presbyterian Church","website":"http://cornerstonepresfranklin.org/","latitude":"35.9237606","longitude":"-86.86820100","address":"136 3rd Ave S, Franklin, TN 37064, USA","phone_number":"+1 615-618-4707","last_updated":"2023-05-28 21:22"},"geometry":{"type":"Point","coordinates":[-86.868201,35.923761]}},{"type":"Feature","properties":{"church_name":"Covenant Baptist Church","AirtableRecord":"recL7UBmXC2Vs33nb","place_id":"ChIJc0g5d2uPZIgRECMqx6e9y0c","name":"Covenant Baptist Church in Bellevue","website":"http://www.covenantbaptistbellevue.org/","latitude":"36.0719523","longitude":"-87.00602130","address":"8201 McCrory Ln, Nashville, TN 37221, USA","phone_number":"+1 615-646-1919","last_updated":"2023-05-28 21:22"},"geometry":{"type":"Point","coordinates":[-87.006021,36.071952]}},{"type":"Feature","properties":{"church_name":"Covenant Of The Cross","AirtableRecord":"recFLpCkSHuiX0f7Y","place_id":"ChIJ39Su2OZCZIgRbn4uF_6tY6A","name":"Covenant of the Cross","website":"http://www.covenantofthecross.com/","latitude":"36.2559266","longitude":"-86.71864260","address":"773M+R8, 752 Madison Square, Nashville, TN 37115, USA","phone_number":"+1 615-612-5040","last_updated":"2023-05-28 21:22"},"geometry":{"type":"Point","coordinates":[-86.718643,36.255927]}},{"type":"Feature","properties":{"church_name":"Covenant Presbyterian Church","default_website":"http://www.covenantpres.com/","AirtableRecord":"recRxiFugOo0alNNu","place_id":"ChIJUzyPr4FjZIgRi1kX0OFN9fQ","name":"Covenant Presbyterian Church","website":"https://www.covenantpres.com/","latitude":"36.0928596","longitude":"-86.82524470","address":"33 Burton Hills Blvd, Nashville, TN 37215, USA","phone_number":"+1 615-383-2206","last_updated":"2023-05-28 21:22"},"geometry":{"type":"Point","coordinates":[-86.825245,36.09286]}},{"type":"Feature","properties":{"church_name":"Crieve Hall Church of Christ","default_website":"http://www.crievehall.org/","AirtableRecord":"recglFw0FFtzssY0X","place_id":"ChIJUeN0vG1lZIgRg_FDknVEWSA","name":"Crieve Hall Church of Christ","website":"http://crievehall.org/","latitude":"36.0761085","longitude":"-86.75863090","address":"4806 Trousdale Dr, Nashville, TN 37220, USA","phone_number":"+1 615-832-9658","last_updated":"2023-05-28 21:22"},"geometry":{"type":"Point","coordinates":[-86.758631,36.076108]}},{"type":"Feature","properties":{"church_name":"Crievewood Baptist Church","AirtableRecord":"recfjt2LCJdo0GLEZ","place_id":"ChIJ4SDpXUJlZIgRNXAg-eZhS7g","name":"Crievewood Baptist Church","website":"http://crievewood.com/","latitude":"36.0660425","longitude":"-86.75461430","address":"480 Hogan Rd, Nashville, TN 37220, USA","phone_number":"+1 615-832-5968","last_updated":"2023-05-28 21:22"},"geometry":{"type":"Point","coordinates":[-86.754614,36.066043]}},{"type":"Feature","properties":{"church_name":"Crievewood United Methodist Church","default_website":"http://www.crievewoodumc.org/","AirtableRecord":"recIXuLurKsNTwUiY","place_id":"ChIJxeUMAV1lZIgRevae-nFsxCk","name":"Crievewood United Methodist Church","website":"http://crievewoodumc.org/","latitude":"36.0640841","longitude":"-86.74950490","address":"451 Hogan Rd, Nashville, TN 37220, USA","phone_number":"+1 615-832-2897","last_updated":"2023-05-28 21:22"},"geometry":{"type":"Point","coordinates":[-86.749505,36.064084]}},{"type":"Feature","properties":{"church_name":"Cross of Life Lutheran Church Missouri","AirtableRecord":"recjRdjQfPo9zIlOw","place_id":"ChIJa4_R7lRhZIgRwhrZQEP5nus","name":"Concordia Lutheran Church-LCMS","website":"http://concordianashville.org/","latitude":"36.1378403","longitude":"-86.82355230","address":"3501 Central Ave, Nashville, TN 37205, USA","phone_number":"+1 615-292-0982","last_updated":"2023-05-28 21:21"},"geometry":{"type":"Point","coordinates":[-86.823552,36.13784]}},{"type":"Feature","properties":{"church_name":"Cross Point Church","AirtableRecord":"rec3sdB85sEh4U6lS","place_id":"ChIJn8PhUlNmZIgRnsndQskInyo","name":"Cross Point Church","website":"http://crosspoint.tv/","latitude":"36.1758161","longitude":"-86.77736190","address":"299 Cowan St, Nashville, TN 37213, USA","phone_number":"+1 615-298-4422","last_updated":"2023-05-28 21:22"},"geometry":{"type":"Point","coordinates":[-86.777362,36.175816]}},{"type":"Feature","properties":{"church_name":"Cross Point Community Church","AirtableRecord":"recqS6jAY7gX9UuCg","place_id":"ChIJn8PhUlNmZIgRnsndQskInyo","name":"Cross Point Church","website":"http://crosspoint.tv/","latitude":"36.1758161","longitude":"-86.77736190","address":"299 Cowan St, Nashville, TN 37213, USA","phone_number":"+1 615-298-4422","last_updated":"2023-05-28 21:22"},"geometry":{"type":"Point","coordinates":[-86.777362,36.175816]}},{"type":"Feature","properties":{"church_name":"Cross Timbers Free Will Baptist Church","AirtableRecord":"recZ7g7CxY5x9yl1z","place_id":"ChIJqY1tk1uIZIgRes5kBnXdtpQ","name":"Cross Timbers Free Will Baptist Church","website":"https://www.crosstimbersfwbc.com/","latitude":"36.0786703","longitude":"-86.93618290","address":"201 Cross Timbers Dr, Nashville, TN 37221, USA","phone_number":"+1 615-646-0515","last_updated":"2023-05-28 21:22"},"geometry":{"type":"Point","coordinates":[-86.936183,36.07867]}},{"type":"Feature","properties":{"church_name":"Crossland Church","AirtableRecord":"rec0nbLTnuSIbAcbD","place_id":"ChIJf7G4jWFtZIgRqlrOc5XW4Qo","name":"Crossland Church","website":"https://www.crosslandchurch.com/","latitude":"36.0484297","longitude":"-86.64512840","address":"5424 Bell Forge Ln E Unit 694, Antioch, TN 37013, USA","phone_number":"+1 615-669-5805","last_updated":"2023-05-28 21:22"},"geometry":{"type":"Point","coordinates":[-86.645128,36.04843]}},{"type":"Feature","properties":{"church_name":"Crosspoint Church","default_website":"https://www.crosspoint.tv/","AirtableRecord":"rec7MZhG3CTerYtle","place_id":"ChIJn8PhUlNmZIgRnsndQskInyo","name":"Cross Point Church","website":"http://crosspoint.tv/","latitude":"36.1758161","longitude":"-86.77736190","address":"299 Cowan St, Nashville, TN 37213, USA","phone_number":"+1 615-298-4422","last_updated":"2023-05-28 21:22"},"geometry":{"type":"Point","coordinates":[-86.777362,36.175816]}},{"type":"Feature","properties":{"church_name":"Crossroads Antioch","AirtableRecord":"recWGLE18VESAMJNi","place_id":"ChIJocNHAfhtZIgRoIsgMHvUFaI","name":"My CR Church","website":"http://mycrchurch.tv/","latitude":"36.0467014","longitude":"-86.66524800","address":"1141 Bell Rd, Antioch, TN 37013, USA","phone_number":"+1 615-347-7101","last_updated":"2023-05-28 21:22"},"geometry":{"type":"Point","coordinates":[-86.665248,36.046701]}},{"type":"Feature","properties":{"church_name":"Crossway Pentecostal Church","AirtableRecord":"recdFVa5Ny7HRgx7I","place_id":"ChIJqSkKy4BjZIgRJts6sGDr-JA","name":"CrossWay Pentecostal Church","latitude":"36.0961362","longitude":"-86.82350550","address":"40 Burton Hills Blvd, Nashville, TN 37215, USA","phone_number":"+1 615-710-8512","last_updated":"2023-05-28 21:22"},"geometry":{"type":"Point","coordinates":[-86.823505,36.096136]}},{"type":"Feature","properties":{"church_name":"Cumberland Presbyterian Church","AirtableRecord":"recXVYB69CjEJTIz2","place_id":"ChIJEfMncjNqZIgRLkYruqcA9Xw","name":"Donelson Cumberland Presbyterian Church","website":"http://donelsoncpchurch.com/","latitude":"36.1702363","longitude":"-86.65629030","address":"2914 Lebanon Pike, Nashville, TN 37214, USA","last_updated":"2023-05-28 21:22"},"geometry":{"type":"Point","coordinates":[-86.65629,36.170236]}},{"type":"Feature","properties":{"church_name":"Dalewood Baptist Church","AirtableRecord":"recMuGvi2llSfw1MR","place_id":"ChIJrzg_4CRoZIgRckdR6A4yrZM","name":"Dalewood Baptist Church","website":"https://dalewoodchurchnashville.com/","latitude":"36.2085942","longitude":"-86.71433060","address":"1586 McGavock Pk, Nashville, TN 37216, USA","phone_number":"+1 615-227-7000","last_updated":"2023-05-29 16:06"},"geometry":{"type":"Point","coordinates":[-86.714331,36.208594]}},{"type":"Feature","properties":{"church_name":"Dalewood United Methodist Church","default_website":"http://dalewoodumc.wordpress.com/","AirtableRecord":"recBYqDu2OQWzh2Bv","place_id":"ChIJUeS_PztoZIgRQspm0A5xIDM","name":"Dalewood United Methodist Church","website":"http://dalewoodumc.org/","latitude":"36.2063145","longitude":"-86.71554280","address":"2300 Ridgecrest Dr, Nashville, TN 37216, USA","phone_number":"+1 615-226-6316","last_updated":"2023-05-29 16:06"},"geometry":{"type":"Point","coordinates":[-86.715543,36.206314]}},{"type":"Feature","properties":{"church_name":"Disciple of Christ - Regional","AirtableRecord":"rec0cFYZhIesOZWr2","place_id":"ChIJ-Xgxa_hhZIgRxvn5rJl6fAo","name":"CC(DOC)TN Regional Office","website":"http://tndisciples.org/","latitude":"36.1995400","longitude":"-86.84631150","address":"4006 Ashland City Hwy, Nashville, TN 37218, USA","phone_number":"+1 615-646-3705","last_updated":"2023-05-29 16:06"},"geometry":{"type":"Point","coordinates":[-86.846311,36.19954]}},{"type":"Feature","properties":{"church_name":"Dixon Memorial United Methodist Church","AirtableRecord":"recUHiRrwqKefymio","place_id":"ChIJN6ZlICFnZIgRIhtkr-9asD4","name":"Dixon Memorial United Methodist Church","latitude":"36.1799167","longitude":"-86.80582700","address":"1111 Buchanan St, Nashville, TN 37208, USA","phone_number":"+1 615-256-8611","last_updated":"2023-05-29 16:06"},"geometry":{"type":"Point","coordinates":[-86.805827,36.179917]}},{"type":"Feature","properties":{"church_name":"Donelson Christian Church","AirtableRecord":"rec1tQqip6fMM7ura","place_id":"ChIJnxoIngxpZIgRwWB4dAYgl5M","name":"Donelson Church of Christ","website":"http://donelsonchurch.org/","latitude":"36.1708313","longitude":"-86.66944080","address":"2706 Old Lebanon Rd, Nashville, TN 37214, USA","phone_number":"+1 615-883-6666","last_updated":"2023-05-29 16:06"},"geometry":{"type":"Point","coordinates":[-86.669441,36.170831]}},{"type":"Feature","properties":{"church_name":"Donelson Church of Christ","AirtableRecord":"recSQOE8240sUutaN","place_id":"ChIJnxoIngxpZIgRwWB4dAYgl5M","name":"Donelson Church of Christ","website":"http://donelsonchurch.org/","latitude":"36.1708313","longitude":"-86.66944080","address":"2706 Old Lebanon Rd, Nashville, TN 37214, USA","phone_number":"+1 615-883-6666","last_updated":"2023-05-29 16:06"},"geometry":{"type":"Point","coordinates":[-86.669441,36.170831]}},{"type":"Feature","properties":{"church_name":"Donelson Church of the Nazarene","AirtableRecord":"reclmni4H1t9HGdjO","place_id":"ChIJFWehPWNpZIgRHxZlyrpIa68","name":"Donelson Church-The Nazarene","latitude":"36.1612830","longitude":"-86.66443200","address":"208 Donelson Pike, Nashville, TN 37214, USA","phone_number":"+1 615-889-2860","last_updated":"2023-05-29 16:06"},"geometry":{"type":"Point","coordinates":[-86.664432,36.161283]}},{"type":"Feature","properties":{"church_name":"Donelson Cumberland Presbyterian Church","AirtableRecord":"recif5zfjPIxu9R95","place_id":"ChIJEfMncjNqZIgRLkYruqcA9Xw","name":"Donelson Cumberland Presbyterian Church","website":"http://donelsoncpchurch.com/","latitude":"36.1702363","longitude":"-86.65629030","address":"2914 Lebanon Pike, Nashville, TN 37214, USA","last_updated":"2023-05-28 21:22"},"geometry":{"type":"Point","coordinates":[-86.65629,36.170236]}},{"type":"Feature","properties":{"church_name":"Donelson Family at First Baptist Church","AirtableRecord":"reccnwGH3LETVZdGy","place_id":"ChIJZYKaOXRpZIgRuUGK5z6_60o","name":"Donelson First","website":"http://www.donelsonfirst.com/","latitude":"36.1702645","longitude":"-86.67712290","address":"2526 Lebanon Pike, Nashville, TN 37214, USA","phone_number":"+1 615-883-2339","last_updated":"2023-05-29 16:06"},"geometry":{"type":"Point","coordinates":[-86.677123,36.170265]}},{"type":"Feature","properties":{"church_name":"Donelson Free Will Baptist Church","AirtableRecord":"recvEVrM4uMYKZ99i","place_id":"ChIJGy51v4xlZIgRcBKc9m0d_W0","name":"Faith Free Will Baptist Church","latitude":"36.1094169","longitude":"-86.74767180","address":"2921 Louise Dr, Nashville, TN 37211, USA","phone_number":"+1 615-832-6739","last_updated":"2023-05-29 16:06"},"geometry":{"type":"Point","coordinates":[-86.747672,36.109417]}},{"type":"Feature","properties":{"church_name":"Donelson Heights United Mthdst","AirtableRecord":"recOs1qdv9VoZ8PIq","place_id":"ChIJZyCzbqBpZIgR6JeuAO1BLzM","name":"Donelson Heights United Methodist Church","website":"http://www.dhumctn.org/","latitude":"36.1748932","longitude":"-86.68231250","address":"84 Fairway Dr, Nashville, TN 37214, USA","phone_number":"+1 615-883-6103","last_updated":"2023-05-29 16:06"},"geometry":{"type":"Point","coordinates":[-86.682312,36.174893]}},{"type":"Feature","properties":{"church_name":"Donelson View Baptist Church","AirtableRecord":"recEw38T55UaiTD3G","place_id":"ChIJxZB0ZeJoZIgR4-ay5PMrL3I","name":"Donelson View Baptist Church","website":"http://donelsonviewbc.com/","latitude":"36.1602221","longitude":"-86.70227270","address":"2049 Lebanon Pike, Nashville, TN 37210, USA","phone_number":"+1 615-883-8754","last_updated":"2023-05-29 16:06"},"geometry":{"type":"Point","coordinates":[-86.702273,36.160222]}},{"type":"Feature","properties":{"church_name":"Downtown Presbyterian Church","default_website":"http://www.dpchurch.com/","AirtableRecord":"recPJnzEiYZlSV1dB","place_id":"ChIJI_tmVlhmZIgR1Fma9myxOfg","name":"The Downtown Presbyterian Church","website":"http://www.dpchurch.com/","latitude":"36.1629832","longitude":"-86.77976060","address":"154 Rep. John Lewis Way N, Nashville, TN 37219, USA","phone_number":"+1 615-254-7584","last_updated":"2023-05-29 16:06"},"geometry":{"type":"Point","coordinates":[-86.779761,36.162983]}},{"type":"Feature","properties":{"church_name":"East - Nashville Jehovah's Witness Church","AirtableRecord":"recs6yD56ad5wSMWU","place_id":"ChIJsTvL5r1nZIgRPTPCjL-pbH0","name":"Kingdom Hall of Jehovah's Witnesses","website":"http://www.jw.org/","latitude":"36.1972514","longitude":"-86.76735390","address":"1400 Meridian St, Nashville, TN 37207, USA","phone_number":"+1 615-262-0469","last_updated":"2023-05-29 16:06"},"geometry":{"type":"Point","coordinates":[-86.767354,36.197251]}},{"type":"Feature","properties":{"church_name":"East End United Methodist Church","AirtableRecord":"recqOnTCnbjziimP9","place_id":"ChIJYd4BtSxmZIgRPkepMRpOWT8","name":"East End United Methodist Church","website":"http://www.eastendumc.org/","latitude":"36.1756639","longitude":"-86.74768890","address":"1212 Holly St, Nashville, TN 37206, USA","phone_number":"+1 615-227-3272","last_updated":"2023-05-29 16:06"},"geometry":{"type":"Point","coordinates":[-86.747689,36.175664]}},{"type":"Feature","properties":{"church_name":"East Nashville Baptist Church","AirtableRecord":"recRnRZyZAY1K3cig","place_id":"ChIJJ70VuHJoZIgRyHfFKz1e0-Y","name":"East Nashville Baptist Church","latitude":"36.1962273","longitude":"-86.73275970","address":"2100 Scott Ave, Nashville, TN 37216, USA","phone_number":"+1 615-228-1754","last_updated":"2023-05-29 16:06"},"geometry":{"type":"Point","coordinates":[-86.73276,36.196227]}},{"type":"Feature","properties":{"church_name":"East Nashville United Pentecostal Church","AirtableRecord":"recfVaX4JsJ19cWIw","place_id":"ChIJq2Iw8k9dZIgRm6tnKusZVS4","name":"First Apostolic Church","website":"http://www.firstapostolic.com/","latitude":"36.2313800","longitude":"-86.75177590","address":"265 Broadmoor Dr, Nashville, TN 37207, USA","phone_number":"+1 615-227-5436","last_updated":"2023-05-29 16:06"},"geometry":{"type":"Point","coordinates":[-86.751776,36.23138]}},{"type":"Feature","properties":{"church_name":"Eastgate Creative Christian Fellowship","AirtableRecord":"recIfqlgonEriJtZT","place_id":"ChIJr2DjMHlpZIgR9WZaVTLrEJ4","name":"Eastgate Creative Christian Fellowship","website":"http://eastgateccf.com/","latitude":"36.2172040","longitude":"-86.60346850","address":"633 Shute Ln, Old Hickory, TN 37138, USA","phone_number":"+1 615-316-5656","last_updated":"2023-05-29 16:06"},"geometry":{"type":"Point","coordinates":[-86.603469,36.217204]}},{"type":"Feature","properties":{"church_name":"Eastland Baptist Church","AirtableRecord":"recJM4Qynt3kSVtWT","place_id":"ChIJS2iMLdlnZIgR7ga0NMhyRBI","name":"Eastland Baptist Church","website":"http://www.eastlandbaptistchurch.org/","latitude":"36.1915880","longitude":"-86.74444000","address":"1215 Gallatin Ave, Nashville, TN 37206, USA","phone_number":"+1 615-262-9424","last_updated":"2023-05-29 16:06"},"geometry":{"type":"Point","coordinates":[-86.74444,36.191588]}},{"type":"Feature","properties":{"church_name":"Eastminster Presbyterian Church","AirtableRecord":"recDMbJ3UReL2wk0E","place_id":"ChIJJ6-C-mVnZIgRzzzMFqZ0sbo","name":"Eastminster Presbyterian Church Iglesia Presbiteriana","website":"https://eastminsterpc.org/","latitude":"36.1791527","longitude":"-86.74930550","address":"211 N 11th St, Nashville, TN 37206, USA","phone_number":"+1 615-208-6328","last_updated":"2023-05-29 16:06"},"geometry":{"type":"Point","coordinates":[-86.749306,36.179153]}},{"type":"Feature","properties":{"church_name":"Eastwood Baptist Church","AirtableRecord":"recZByELXrLSGTkBj","place_id":"ChIJa039KhBoZIgR8-yeMeaCq_c","name":"Eastwood Baptist Church","website":"https://eastwoodtn.com/","latitude":"36.2049359","longitude":"-86.73147370","address":"1229 McGavock Pk, Nashville, TN 37216, USA","phone_number":"+1 615-228-7564","last_updated":"2023-05-29 16:06"},"geometry":{"type":"Point","coordinates":[-86.731474,36.204936]}},{"type":"Feature","properties":{"church_name":"Eastwood Christian Church","default_website":"http://www.eastwoodchristianchurch.org/","AirtableRecord":"recz1Cf7edNSHzljy","place_id":"ChIJ03JKinhoZIgRQE9ck6PIyI0","name":"Eastwood Christian Church","website":"http://www.eastwoodchristianchurch.org/","latitude":"36.1835654","longitude":"-86.74057990","address":"1601 Eastland Ave, Nashville, TN 37206, USA","phone_number":"+1 615-227-2285","last_updated":"2023-05-29 16:06"},"geometry":{"type":"Point","coordinates":[-86.74058,36.183565]}},{"type":"Feature","properties":{"church_name":"Echo Hills Church of Christ","AirtableRecord":"recqKUNxj1zmxOEoJ","place_id":"ChIJt4vqMk5DZIgR8hYhP7DauEs","name":"Echo Hills Church of Christ","website":"http://www.echohillschurch.org/","latitude":"36.2931107","longitude":"-86.73429460","address":"1106 Campbell Rd, Goodlettsville, TN 37072, USA","phone_number":"+1 615-420-7250","last_updated":"2023-05-29 16:06"},"geometry":{"type":"Point","coordinates":[-86.734295,36.293111]}},{"type":"Feature","properties":{"church_name":"Edgefield Church","default_website":"https://www.edgefieldnashville.org/","AirtableRecord":"recfEvagDeZj9sifi","place_id":"ChIJd0cUszVmZIgRum_WmzpTLCI","name":"Edgefield Church","website":"https://www.edgefieldnashville.org/","latitude":"36.1725009","longitude":"-86.75946400","address":"700 Russell St, Nashville, TN 37206, USA","phone_number":"+1 615-730-7267","last_updated":"2023-05-29 16:06"},"geometry":{"type":"Point","coordinates":[-86.759464,36.172501]}},{"type":"Feature","properties":{"church_name":"Edgehill United Methodist Church","AirtableRecord":"recrVo7zuwz9PSqlx","place_id":"ChIJ66M9RoVmZIgRga2xxtYv_DE","name":"Edgehill United Methodist Church","website":"http://www.edgehill.org/","latitude":"36.1433889","longitude":"-86.79073680","address":"1502 Edgehill Ave, Nashville, TN 37212, USA","phone_number":"+1 615-254-7628","last_updated":"2023-05-29 16:06"},"geometry":{"type":"Point","coordinates":[-86.790737,36.143389]}},{"type":"Feature","properties":{"church_name":"El Shaddai Church","AirtableRecord":"recXHlkiNfC29sQGN","place_id":"ChIJf9JtEgZxZIgR4wsCIBFGa0g","name":"El Shaddai Christian Church","website":"https://www.elshaddaicc.org/","latitude":"35.9940496","longitude":"-86.69496010","address":"9826 Concord Rd, Brentwood, TN 37027, USA","phone_number":"+1 615-941-8377","last_updated":"2023-05-29 16:06"},"geometry":{"type":"Point","coordinates":[-86.69496,35.99405]}},{"type":"Feature","properties":{"church_name":"Eleventh Street Church of Christ","AirtableRecord":"recirAYpYR7loYTyR","place_id":"ChIJN-2b5y1mZIgRsSYGzR1jR5s","name":"Eleventh Street Church of Christ","latitude":"36.1708556","longitude":"-86.75048470","address":"1100 Shelby Ave, Nashville, TN 37206, USA","phone_number":"+1 615-227-7658","last_updated":"2023-05-29 16:06"},"geometry":{"type":"Point","coordinates":[-86.750485,36.170856]}},{"type":"Feature","properties":{"church_name":"Emmanuel Church of Christ","AirtableRecord":"recpDetoH6fg4ijQI","place_id":"ChIJTUzoQUpmZIgRGjyFG55ue1E","name":"Emmanuel Church","website":"http://www.emmanuelchurchnashville.com/","latitude":"36.1744372","longitude":"-86.64830880","address":"3020 Lebanon Pike, Nashville, TN 37214, USA","last_updated":"2023-05-29 16:06"},"geometry":{"type":"Point","coordinates":[-86.648309,36.174437]}},{"type":"Feature","properties":{"church_name":"Emmanuel Church of the Apostolic Faith","AirtableRecord":"recbJUGbFAs1cAcRw","place_id":"ChIJTUzoQUpmZIgRGjyFG55ue1E","name":"Emmanuel Church","website":"http://www.emmanuelchurchnashville.com/","latitude":"36.1744372","longitude":"-86.64830880","address":"3020 Lebanon Pike, Nashville, TN 37214, USA","last_updated":"2023-05-29 16:06"},"geometry":{"type":"Point","coordinates":[-86.648309,36.174437]}},{"type":"Feature","properties":{"church_name":"Emmanuel Lutheran Church","AirtableRecord":"recWXCUvR1hCmX0Vt","place_id":"ChIJywHnW1tqZIgRg6nFYmcGNZY","name":"Emmanuel Lutheran Church","website":"http://emmanuelhermitage.org/","latitude":"36.1887496","longitude":"-86.63025910","address":"1003 Hickory Hill Ln, Hermitage, TN 37076, USA","phone_number":"+1 615-883-7533","last_updated":"2023-05-29 16:06"},"geometry":{"type":"Point","coordinates":[-86.630259,36.18875]}},{"type":"Feature","properties":{"church_name":"Ethiopia Church","AirtableRecord":"recUXqf7nax4pKTTM","place_id":"ChIJA6K21ZVvZIgRO8IS2tc45Ws","name":"Debre Keranio Medhanialem Ethiopian Orthodox Tewahedo Church","latitude":"36.0717694","longitude":"-86.72345520","address":"4506 Nolensville Pk, Nashville, TN 37211, USA","phone_number":"+1 615-333-1695","last_updated":"2023-05-29 16:06"},"geometry":{"type":"Point","coordinates":[-86.723455,36.071769]}},{"type":"Feature","properties":{"church_name":"Ethos Church","default_website":"http://www.ethoschurch.org/","AirtableRecord":"rec8hErxr98wszegU","place_id":"ChIJdcRY0OhmZIgRML0TxsALfb8","name":"Ethos Church Downtown","website":"http://www.ethoschurch.org/","latitude":"36.1640859","longitude":"-86.79737560","address":"1402 Clinton St, Nashville, TN 37203, USA","last_updated":"2023-05-29 16:06"},"geometry":{"type":"Point","coordinates":[-86.797376,36.164086]}},{"type":"Feature","properties":{"church_name":"Ethos Church of Christ","AirtableRecord":"recCnDsIWl8mBhIKb","place_id":"ChIJdcRY0OhmZIgRML0TxsALfb8","name":"Ethos Church Downtown","website":"http://www.ethoschurch.org/","latitude":"36.1640859","longitude":"-86.79737560","address":"1402 Clinton St, Nashville, TN 37203, USA","last_updated":"2023-05-29 16:06"},"geometry":{"type":"Point","coordinates":[-86.797376,36.164086]}},{"type":"Feature","properties":{"church_name":"Evangelical Arabic Church","AirtableRecord":"rec7WIjYMMrAWb92y","place_id":"ChIJ214AuBJtZIgReYmipNc1pCw","name":"Arabic Church","latitude":"36.0633736","longitude":"-86.60940450","address":"3334 Hamilton Church Rd, Antioch, TN 37013, USA","phone_number":"+1 615-730-6034","last_updated":"2023-05-29 16:06"},"geometry":{"type":"Point","coordinates":[-86.609404,36.063374]}},{"type":"Feature","properties":{"church_name":"Evans Hill Missionary Baptist","AirtableRecord":"rec7Apdm8sY6Iboce","place_id":"ChIJ9_h_6dhqZIgRAilGfOSwuNE","name":"Evans Hill Missionary Baptist Church","latitude":"36.1729175","longitude":"-86.59474290","address":"1341 Tulip Grove Rd, Hermitage, TN 37076, USA","phone_number":"+1 615-889-0971","last_updated":"2023-05-29 16:06"},"geometry":{"type":"Point","coordinates":[-86.594743,36.172917]}},{"type":"Feature","properties":{"church_name":"Fairfield Missionary Baptist Church","AirtableRecord":"recKs2o8B4PUYNkhO","place_id":"ChIJxQaMmWBDZIgRV3yoyqyk75Q","name":"Fairfield Missionary Baptist Church","website":"http://www.fairfieldmbc.org/","latitude":"36.3001934","longitude":"-86.72098540","address":"1004 Dickerson Rd, Goodlettsville, TN 37072, USA","phone_number":"+1 615-859-7670","last_updated":"2023-05-29 16:06"},"geometry":{"type":"Point","coordinates":[-86.720985,36.300193]}},{"type":"Feature","properties":{"church_name":"Faith Apostolic Church","AirtableRecord":"recRfXpdt3OfdA8GG","place_id":"ChIJ65d2rEVnZIgRQqwDlz8J1j8","name":"Faith Apostolic Church-Nashville","latitude":"36.2067529","longitude":"-86.80969620","address":"925 W Trinity Ln, Nashville, TN 37207, USA","phone_number":"+1 615-255-6462","last_updated":"2023-05-29 16:06"},"geometry":{"type":"Point","coordinates":[-86.809696,36.206753]}},{"type":"Feature","properties":{"church_name":"Faith Christian Reformed Church","default_website":"https://www.faithchurchnash.com/","AirtableRecord":"recbK5zMqZMENvRKt","place_id":"ChIJd6V2OgFwZIgR-uOFYFtD3No","name":"Faith Christian Reformed Church","website":"http://www.faithchurchnash.com/","latitude":"36.0401107","longitude":"-86.73846290","address":"15512 Old Hickory Blvd, Nashville, TN 37211, USA","phone_number":"+1 615-833-5977","last_updated":"2023-05-29 16:06"},"geometry":{"type":"Point","coordinates":[-86.738463,36.040111]}},{"type":"Feature","properties":{"church_name":"Faith Community Church","AirtableRecord":"recnpISyvurE0jS13","place_id":"ChIJd6V2OgFwZIgR-uOFYFtD3No","name":"Faith Christian Reformed Church","website":"http://www.faithchurchnash.com/","latitude":"36.0401107","longitude":"-86.73846290","address":"15512 Old Hickory Blvd, Nashville, TN 37211, USA","phone_number":"+1 615-833-5977","last_updated":"2023-05-29 16:06"},"geometry":{"type":"Point","coordinates":[-86.738463,36.040111]}},{"type":"Feature","properties":{"church_name":"Faith Fellowship Church","AirtableRecord":"rec8p5BXg9qKex1I8","place_id":"ChIJDRzs6lNnZIgRgdSafg-HOjc","name":"Faith Fellowship Church","latitude":"36.2143770","longitude":"-86.81785210","address":"3801 Buena Vista Pike, Nashville, TN 37218, USA","phone_number":"+1 615-876-7679","last_updated":"2023-05-29 16:06"},"geometry":{"type":"Point","coordinates":[-86.817852,36.214377]}},{"type":"Feature","properties":{"church_name":"Faith Free Will Baptist Church","AirtableRecord":"recTBUH5aEEXvzNrM","place_id":"ChIJGy51v4xlZIgRcBKc9m0d_W0","name":"Faith Free Will Baptist Church","latitude":"36.1094169","longitude":"-86.74767180","address":"2921 Louise Dr, Nashville, TN 37211, USA","phone_number":"+1 615-832-6739","last_updated":"2023-05-29 16:06"},"geometry":{"type":"Point","coordinates":[-86.747672,36.109417]}},{"type":"Feature","properties":{"church_name":"Faith is the Victory Church","AirtableRecord":"recMrrjLbOUJ6ldar","place_id":"ChIJu0dfhEldZIgR7j74HYOyxM4","name":"Faith Is the Victory Church","website":"https://victoriousliving.org/","latitude":"36.2377998","longitude":"-86.74602540","address":"3344 Walton Ln, Nashville, TN 37216, USA","phone_number":"+1 615-226-2145","last_updated":"2023-05-29 16:06"},"geometry":{"type":"Point","coordinates":[-86.746025,36.2378]}},{"type":"Feature","properties":{"church_name":"Faith Life Church","AirtableRecord":"receZKCixgU0XYzh1","place_id":"ChIJnUqeUvptZIgRSWP27UkHKKY","name":"Faith Life Church","website":"http://flc4u.com/","latitude":"36.0626754","longitude":"-86.93247550","address":"215 Bellevue Rd, Nashville, TN 37221, USA","phone_number":"+1 615-651-8060","last_updated":"2023-05-29 16:06"},"geometry":{"type":"Point","coordinates":[-86.932475,36.062675]}},{"type":"Feature","properties":{"church_name":"Faith Life Church(formerly Word of Faith)","AirtableRecord":"recll55WPEXrrUpvS","place_id":"ChIJnUqeUvptZIgRSWP27UkHKKY","name":"Faith Life Church","website":"http://flc4u.com/","latitude":"36.0626754","longitude":"-86.93247550","address":"215 Bellevue Rd, Nashville, TN 37221, USA","phone_number":"+1 615-651-8060","last_updated":"2023-05-29 16:06"},"geometry":{"type":"Point","coordinates":[-86.932475,36.062675]}},{"type":"Feature","properties":{"church_name":"Faith Methodist Church","AirtableRecord":"recjbwZp08r8qoY30","place_id":"ChIJ43r7To5uZIgR_34vRgc6kWE","name":"Family of Faith Church","latitude":"36.0961336","longitude":"-86.67445490","address":"419 Ezell Pike, Nashville, TN 37217, USA","phone_number":"+1 629-333-6920","last_updated":"2023-05-29 16:06"},"geometry":{"type":"Point","coordinates":[-86.674455,36.096134]}},{"type":"Feature","properties":{"church_name":"Faith Methodist Episcopal Church","AirtableRecord":"recPJLHDHMk1jgjWa","place_id":"ChIJ43r7To5uZIgR_34vRgc6kWE","name":"Family of Faith Church","latitude":"36.0961336","longitude":"-86.67445490","address":"419 Ezell Pike, Nashville, TN 37217, USA","phone_number":"+1 629-333-6920","last_updated":"2023-05-29 16:06"},"geometry":{"type":"Point","coordinates":[-86.674455,36.096134]}},{"type":"Feature","properties":{"church_name":"Faith Presbyterian Church","AirtableRecord":"rec3FgNd9RkCe7hxF","place_id":"ChIJ-_cXyV1EZIgROGUrZ1l-Hpg","name":"Faith Presbyterian Church","website":"http://www.faithprespca.org/","latitude":"36.3290598","longitude":"-86.69576440","address":"372 Caldwell Dr, Goodlettsville, TN 37072, USA","phone_number":"+1 615-859-1130","last_updated":"2023-05-29 16:06"},"geometry":{"type":"Point","coordinates":[-86.695764,36.32906]}},{"type":"Feature","properties":{"church_name":"Faith United Missionary Baptist Church","default_website":"http://www.fumb.org/","AirtableRecord":"recU9L9Wgb1kN3124","place_id":"ChIJ81jchPVdZIgR9dc1OMkJ_BA","name":"Faith United Missionary Baptist","website":"http://www.fumb.org/","latitude":"36.2214029","longitude":"-86.80546540","address":"600 Revels Dr, Nashville, TN 37207, USA","phone_number":"+1 615-876-9593","last_updated":"2023-05-29 16:06"},"geometry":{"type":"Point","coordinates":[-86.805465,36.221403]}},{"type":"Feature","properties":{"church_name":"Family Mission Church","AirtableRecord":"recQsLHrYnASdK7v8","place_id":"ChIJoTMq_mJvZIgRo6qQTGrTY3A","name":"Gospel Mission Church","website":"https://gospel-mission-church.business.site/","latitude":"36.1020593","longitude":"-86.73915390","address":"324 Antioch Pike, Nashville, TN 37211, USA","phone_number":"+1 615-833-7780","last_updated":"2023-05-29 16:06"},"geometry":{"type":"Point","coordinates":[-86.739154,36.102059]}},{"type":"Feature","properties":{"church_name":"Family of Faith Church","AirtableRecord":"recFNjr2EmIs7r0dn","place_id":"ChIJ3V6TAvZlZIgRUH89KyA-F1M","name":"Family of Faith Church","website":"http://fofcnashville.org/","latitude":"36.1163835","longitude":"-86.74170920","address":"106 Joyner Ave, Nashville, TN 37210, USA","phone_number":"+1 615-833-8016","last_updated":"2023-05-29 16:06"},"geometry":{"type":"Point","coordinates":[-86.741709,36.116383]}},{"type":"Feature","properties":{"church_name":"Fatherland Baptist Church","AirtableRecord":"recdc3vogfamQLR7j","place_id":"ChIJL6qEJBFDZIgRZRiNS9TnnMg","name":"Fatherland Baptist Church","website":"http://fatherlandchurch.com/","latitude":"36.2756849","longitude":"-86.71558300","address":"200 E Campbell Rd, Madison, TN 37115, USA","phone_number":"+1 615-293-6713","last_updated":"2023-05-29 16:06"},"geometry":{"type":"Point","coordinates":[-86.715583,36.275685]}},{"type":"Feature","properties":{"church_name":"Fellowship Bible Church","default_website":"http://www.fellowshipnashville.org/","AirtableRecord":"recR7ctC0sQ9GPLcz","place_id":"ChIJS3nKIJt7ZIgRwrODXyVHk6Y","name":"Fellowship Bible Church - Brentwood Campus","website":"https://fellowshipbiblechurch.org/","latitude":"35.9942510","longitude":"-86.80910220","address":"1210 Franklin Rd, Brentwood, TN 37027, USA","phone_number":"+1 615-777-8500","last_updated":"2023-05-29 16:06"},"geometry":{"type":"Point","coordinates":[-86.809102,35.994251]}},{"type":"Feature","properties":{"church_name":"Fellowship Nashville","AirtableRecord":"rec4SrMkPXZax1Bj5","place_id":"ChIJt0EWP1VlZIgRNj7F6XGm3xU","name":"Fellowship Nashville","website":"http://fellowshipnashville.church/","latitude":"36.1261568","longitude":"-86.78675560","address":"2301 10th Ave S, Nashville, TN 37204, USA","phone_number":"+1 615-656-4426","last_updated":"2023-05-29 16:06"},"geometry":{"type":"Point","coordinates":[-86.786756,36.126157]}},{"type":"Feature","properties":{"church_name":"Fifteenth Avenue Baptist Church","default_website":"https://fifteenthave.org/","AirtableRecord":"recWpvo7mLmOPJL3t","place_id":"ChIJMRMZI-NmZIgRe_JotUlBWZ0","name":"Fifteenth Avenue Baptist Church","website":"http://fifteenthave.org/","latitude":"36.1734870","longitude":"-86.79338300","address":"1203 9th Ave N, Nashville, TN 37208, USA","phone_number":"+1 615-256-4326","last_updated":"2023-05-29 16:06"},"geometry":{"type":"Point","coordinates":[-86.793383,36.173487]}},{"type":"Feature","properties":{"church_name":"Fifteenth Avenue Church of Christ","AirtableRecord":"rec4LNX5zAWnAqS7h","place_id":"ChIJ703eaSVnZIgRFIOy68L8R1g","name":"Fifteenth Avenue Church-Christ","website":"https://15thave.churchofchrist.info/","latitude":"36.1867028","longitude":"-86.81140080","address":"2129 15th Ave N, Nashville, TN 37208, USA","phone_number":"+1 615-259-2373","last_updated":"2023-05-29 16:06"},"geometry":{"type":"Point","coordinates":[-86.811401,36.186703]}},{"type":"Feature","properties":{"church_name":"Fifth Ave Baptist Church","AirtableRecord":"rec4VRQ80E9YACQnF","place_id":"ChIJGTEwQRtnZIgRNYNszhHRkfY","name":"Clifton Avenue United Baptist","latitude":"36.1834462","longitude":"-86.79286230","address":"1716 5th Ave N, Nashville, TN 37208, USA","phone_number":"+1 615-259-9917","last_updated":"2023-05-29 16:06"},"geometry":{"type":"Point","coordinates":[-86.792862,36.183446]}},{"type":"Feature","properties":{"church_name":"First Apostolic Church","AirtableRecord":"recaVvuLnGoHmDqN8","place_id":"ChIJq2Iw8k9dZIgRm6tnKusZVS4","name":"First Apostolic Church","website":"http://www.firstapostolic.com/","latitude":"36.2313800","longitude":"-86.75177590","address":"265 Broadmoor Dr, Nashville, TN 37207, USA","phone_number":"+1 615-227-5436","last_updated":"2023-05-29 16:06"},"geometry":{"type":"Point","coordinates":[-86.751776,36.23138]}},{"type":"Feature","properties":{"church_name":"First Assembly of God in Madison","AirtableRecord":"recSzY2RclQ3TEhIe","place_id":"ChIJMW8y6A9DZIgRPfpsiR-vENk","name":"First Assembly of God","latitude":"36.2545974","longitude":"-86.71490290","address":"801 Gallatin Pike S, Madison, TN 37115, USA","phone_number":"+1 615-860-7729","last_updated":"2023-05-29 16:06"},"geometry":{"type":"Point","coordinates":[-86.714903,36.254597]}},{"type":"Feature","properties":{"church_name":"First Baptist Church","AirtableRecord":"rec82tXYy2Wn0wbuP","place_id":"ChIJ-zH5Fl9mZIgRGWJUjNv6bwg","name":"Nashville First Baptist Church","website":"https://nashvillefirst.org/","latitude":"36.1590062","longitude":"-86.78057600","address":"108 7th Ave S, Nashville, TN 37203, USA","phone_number":"+1 615-664-6000","last_updated":"2023-05-29 16:06"},"geometry":{"type":"Point","coordinates":[-86.780576,36.159006]}},{"type":"Feature","properties":{"church_name":"First Baptist Church ~ Hermitage","AirtableRecord":"rec3asK91YaDMMVqD","place_id":"ChIJbYJlF_1qZIgR2BTOzKeB2v8","name":"First Baptist Church","latitude":"36.1739634","longitude":"-86.61218690","address":"3832 Central Pike, Hermitage, TN 37076, USA","last_updated":"2023-05-29 16:06"},"geometry":{"type":"Point","coordinates":[-86.612187,36.173963]}},{"type":"Feature","properties":{"church_name":"First Baptist Church Capitol Hill","default_website":"https://www.firstbaptistcapitolhill.org/","AirtableRecord":"recFLRww8hpXBW1EJ","place_id":"ChIJS4kSo_BmZIgRy0SaaVrqCPw","name":"First Baptist Church, Capitol Hill","website":"http://www.firstbaptistcapitolhill.org/","latitude":"36.1652625","longitude":"-86.78760530","address":"625 Rosa L Parks Blvd, Nashville, TN 37203, USA","phone_number":"+1 615-255-8757","last_updated":"2023-05-29 16:06"},"geometry":{"type":"Point","coordinates":[-86.787605,36.165262]}},{"type":"Feature","properties":{"church_name":"First Baptist Church Concord","AirtableRecord":"rec2v6qRK2BYNUJuN","place_id":"ChIJS4kSo_BmZIgRy0SaaVrqCPw","name":"First Baptist Church, Capitol Hill","website":"http://www.firstbaptistcapitolhill.org/","latitude":"36.1652625","longitude":"-86.78760530","address":"625 Rosa L Parks Blvd, Nashville, TN 37203, USA","phone_number":"+1 615-255-8757","last_updated":"2023-05-29 16:06"},"geometry":{"type":"Point","coordinates":[-86.787605,36.165262]}},{"type":"Feature","properties":{"church_name":"First Baptist Church Hermitage Tn","AirtableRecord":"recb9EgNtBlJ1IeSt","place_id":"ChIJbYJlF_1qZIgR2BTOzKeB2v8","name":"First Baptist Church","latitude":"36.1739634","longitude":"-86.61218690","address":"3832 Central Pike, Hermitage, TN 37076, USA","last_updated":"2023-05-29 16:06"},"geometry":{"type":"Point","coordinates":[-86.612187,36.173963]}},{"type":"Feature","properties":{"church_name":"First Baptist Church Madison","AirtableRecord":"recPQ2mLiVO0hAu4V","place_id":"ChIJeX3yZeRCZIgRBmODeWj5RwM","name":"Madison First Baptist Church","website":"http://www.madisonfirst.org/","latitude":"36.2551650","longitude":"-86.71474030","address":"719 Gallatin Pike S, Madison, TN 37115, USA","phone_number":"+1 615-868-9370","last_updated":"2023-05-29 16:06"},"geometry":{"type":"Point","coordinates":[-86.71474,36.255165]}},{"type":"Feature","properties":{"church_name":"First Baptist Church of Donelson","AirtableRecord":"recEeMKffHqCjZCHb","place_id":"ChIJZYKaOXRpZIgRuUGK5z6_60o","name":"Donelson First","website":"http://www.donelsonfirst.com/","latitude":"36.1702645","longitude":"-86.67712290","address":"2526 Lebanon Pike, Nashville, TN 37214, USA","phone_number":"+1 615-883-2339","last_updated":"2023-05-29 16:06"},"geometry":{"type":"Point","coordinates":[-86.677123,36.170265]}},{"type":"Feature","properties":{"church_name":"First Baptist Church of East Nashville","AirtableRecord":"recakUKuaHw2Nmhrt","place_id":"ChIJ1UVbjEpmZIgR70TBEjxDklU","name":"First Baptist Church of East Nashville","website":"http://www.firstbaptistchurcheastnashville.org/","latitude":"36.1740704","longitude":"-86.76274420","address":"601 Main St, Nashville, TN 37206, USA","phone_number":"+1 615-254-6268","last_updated":"2023-05-29 16:06"},"geometry":{"type":"Point","coordinates":[-86.762744,36.17407]}},{"type":"Feature","properties":{"church_name":"First Baptist Church Of Hopewell","AirtableRecord":"recB3JMmbRPtomvsc","place_id":"ChIJ1_YrKsVBZIgR0XN7f2zfURY","name":"First Baptist Church","latitude":"36.2270621","longitude":"-86.63326100","address":"4033 Lafayette Ave, Old Hickory, TN 37138, USA","phone_number":"+1 615-847-2070","last_updated":"2023-05-29 16:06"},"geometry":{"type":"Point","coordinates":[-86.633261,36.227062]}},{"type":"Feature","properties":{"church_name":"First Baptist Hendersonville","AirtableRecord":"recNVFTUlWKbDDeSd","place_id":"ChIJu4M3db04ZIgRso8aFcPdrJY","name":"First Baptist Church Hendersonville","website":"http://www.fbchville.com/","latitude":"36.3200490","longitude":"-86.56722300","address":"106 Bluegrass Commons Blvd, Hendersonville, TN 37075, USA","phone_number":"+1 615-824-6154","last_updated":"2023-05-29 16:06"},"geometry":{"type":"Point","coordinates":[-86.567223,36.320049]}},{"type":"Feature","properties":{"church_name":"First Baptist of South Inglewood","AirtableRecord":"rec1GIi6yubDsd72w","place_id":"ChIJT1RafRNoZIgRzQZhM0EP0Jc","name":"First Baptist Church South Inglewood","website":"https://www.fbsi.net/","latitude":"36.1989034","longitude":"-86.72658480","address":"1515 Ann St, Nashville, TN 37216, USA","phone_number":"+1 615-262-2531","last_updated":"2023-05-29 16:06"},"geometry":{"type":"Point","coordinates":[-86.726585,36.198903]}},{"type":"Feature","properties":{"church_name":"First Bible Presbyterian Church","AirtableRecord":"recWUSe4mkGlMeDlo","place_id":"ChIJ-40NmARlZIgRAlSp4eNrRp8","name":"First Presbyterian Church","website":"https://fpcnashville.org/","latitude":"36.0794081","longitude":"-86.77540060","address":"4815 Franklin Pike, Nashville, TN 37220, USA","phone_number":"+1 615-383-1815","last_updated":"2023-05-29 16:06"},"geometry":{"type":"Point","coordinates":[-86.775401,36.079408]}},{"type":"Feature","properties":{"church_name":"First Christian Church","AirtableRecord":"recY0lxpVS0LG8WJu","place_id":"ChIJ-zH5Fl9mZIgRGWJUjNv6bwg","name":"Nashville First Baptist Church","website":"https://nashvillefirst.org/","latitude":"36.1590062","longitude":"-86.78057600","address":"108 7th Ave S, Nashville, TN 37203, USA","phone_number":"+1 615-664-6000","last_updated":"2023-05-29 16:06"},"geometry":{"type":"Point","coordinates":[-86.780576,36.159006]}},{"type":"Feature","properties":{"church_name":"First Church of Christ Scientist","AirtableRecord":"recpm9QVQaen7jQr4","place_id":"ChIJH-99uRBkZIgRck-2S7yIp0M","name":"First Church of Christ Scientist","website":"https://christiansciencenashville.org/","latitude":"36.1220215","longitude":"-86.80784760","address":"2911 Hillsboro Pike, Nashville, TN 37215, USA","phone_number":"+1 615-256-1068","last_updated":"2023-05-29 16:06"},"geometry":{"type":"Point","coordinates":[-86.807848,36.122022]}},{"type":"Feature","properties":{"church_name":"First Church of the Nazarene","AirtableRecord":"recooAnBMDB7eHqKz","place_id":"ChIJXXujbC5nZIgRVceLAaXIy0Y","name":"Nashville First Church of the Nazarene","website":"https://nfcn.org/","latitude":"36.1714876","longitude":"-86.76368380","address":"510 Woodland St, Nashville, TN 37206, USA","phone_number":"+1 615-255-1289","last_updated":"2023-05-29 16:06"},"geometry":{"type":"Point","coordinates":[-86.763684,36.171488]}},{"type":"Feature","properties":{"church_name":"First Covenant Church","AirtableRecord":"recZPxkjriB6ab75t","place_id":"ChIJtSQRgfZnZIgRp6X531Nod4E","name":"Covenant Church","latitude":"36.1970349","longitude":"-86.77190530","address":"1348 Dickerson Pike, Nashville, TN 37207, USA","last_updated":"2023-05-29 16:06"},"geometry":{"type":"Point","coordinates":[-86.771905,36.197035]}},{"type":"Feature","properties":{"church_name":"First Evangelical Lutheran Church","default_website":"http://www.first-lutheran-nashville.org/","AirtableRecord":"recr0XThfivDiTyDf","place_id":"ChIJb0RkfF9mZIgRanLuyS_dxwU","name":"First Lutheran Church","website":"http://first-lutheran-nashville.org/","latitude":"36.1580091","longitude":"-86.78173480","address":"113 8th Ave S, Nashville, TN 37203, USA","phone_number":"+1 615-256-7580","last_updated":"2023-05-29 16:06"},"geometry":{"type":"Point","coordinates":[-86.781735,36.158009]}},{"type":"Feature","properties":{"church_name":"First Fellowship Missionary Baptist Church","AirtableRecord":"recAz1GIH3uqS5fxf","place_id":"ChIJ_SSSa55vZIgRytvWpz3XfLo","name":"First Fellowship Missionary","latitude":"36.0866811","longitude":"-86.72550610","address":"522 Paragon Mills Rd, Nashville, TN 37211, USA","phone_number":"+1 615-834-7925","last_updated":"2023-05-29 16:06"},"geometry":{"type":"Point","coordinates":[-86.725506,36.086681]}},{"type":"Feature","properties":{"church_name":"First General Baptist Church","AirtableRecord":"recx5fqDoEjNA4yOs","place_id":"ChIJ-SUIUxdhZIgRMjICkEjdy0Q","name":"Nashville's First Baptist General Baptist Church","latitude":"36.2145025","longitude":"-86.84127780","address":"4030 Cedar Cir, Nashville, TN 37218, USA","last_updated":"2023-05-29 16:06"},"geometry":{"type":"Point","coordinates":[-86.841278,36.214503]}},{"type":"Feature","properties":{"church_name":"First Lutheran Church ELCA","default_website":"http://first-lutheran-nashville.org/","AirtableRecord":"recWQL1XkIpZHp4kr","place_id":"ChIJb0RkfF9mZIgRanLuyS_dxwU","name":"First Lutheran Church","website":"http://first-lutheran-nashville.org/","latitude":"36.1580091","longitude":"-86.78173480","address":"113 8th Ave S, Nashville, TN 37203, USA","phone_number":"+1 615-256-7580","last_updated":"2023-05-29 16:06"},"geometry":{"type":"Point","coordinates":[-86.781735,36.158009]}},{"type":"Feature","properties":{"church_name":"First Presbyterian Church","default_website":"http://www.fpcnashville.org/","AirtableRecord":"recd9nvPpq1e46SPF","place_id":"ChIJ-40NmARlZIgRAlSp4eNrRp8","name":"First Presbyterian Church","website":"https://fpcnashville.org/","latitude":"36.0794081","longitude":"-86.77540060","address":"4815 Franklin Pike, Nashville, TN 37220, USA","phone_number":"+1 615-383-1815","last_updated":"2023-05-29 16:06"},"geometry":{"type":"Point","coordinates":[-86.775401,36.079408]}},{"type":"Feature","properties":{"church_name":"First Presbyterian Church of Gallatin","AirtableRecord":"recWJhID5hS9FVIue","place_id":"ChIJAYhiZncwZIgRmsHAeHWc7a0","name":"First Presbyterian Church of Gallatin","website":"http://www.fpcgallatin.org/","latitude":"36.3874187","longitude":"-86.44865780","address":"167 W Main St, Gallatin, TN 37066, USA","phone_number":"+1 615-452-3151","last_updated":"2023-05-29 16:06"},"geometry":{"type":"Point","coordinates":[-86.448658,36.387419]}},{"type":"Feature","properties":{"church_name":"First Seventh Day Adventist Church","AirtableRecord":"rec7qSaYMzWVqQQB6","place_id":"ChIJEVkezgJkZIgRPmtvtW13Ga8","name":"Nashville First Seventh-day Adventist Church","website":"http://www.nfsda.org/","latitude":"36.1319750","longitude":"-86.81237100","address":"2800 Blair Blvd, Nashville, TN 37212, USA","phone_number":"+1 615-297-1343","last_updated":"2023-05-29 16:06"},"geometry":{"type":"Point","coordinates":[-86.812371,36.131975]}},{"type":"Feature","properties":{"church_name":"First Street Baptist Church","AirtableRecord":"recQqwPJE5KPGVlXD","place_id":"ChIJRShw3-JmZIgRwVm2OrHFU-w","name":"First Street Baptist Church","latitude":"36.1743013","longitude":"-86.79294560","address":"1212 9th Ave N, Nashville, TN 37208, USA","phone_number":"+1 615-256-1017","last_updated":"2023-05-29 16:06"},"geometry":{"type":"Point","coordinates":[-86.792946,36.174301]}},{"type":"Feature","properties":{"church_name":"First Street Missionary Baptist Church","AirtableRecord":"recHQSoCTsWeyEQLS","place_id":"ChIJDZAsVsFnZIgR3oA2Ysrk_sU","name":"First Street Missionary Baptist Church","latitude":"36.1926310","longitude":"-86.75704700","address":"1206 Montgomery Ave, Nashville, TN 37207, USA","phone_number":"+1 615-953-3168","last_updated":"2023-05-29 16:06"},"geometry":{"type":"Point","coordinates":[-86.757047,36.192631]}},{"type":"Feature","properties":{"church_name":"First Unitarian Universalist Church of Nashville","AirtableRecord":"recJpMbkEbitjCDa9","place_id":"ChIJx8vv8RRkZIgRM19UX5eT3_E","name":"First Unitarian Universalist Church of Nashville","website":"https://www.firstuunash.org/","latitude":"36.1140223","longitude":"-86.80575350","address":"1808 Woodmont Blvd, Nashville, TN 37215, USA","phone_number":"+1 615-383-5760","last_updated":"2023-05-29 16:06"},"geometry":{"type":"Point","coordinates":[-86.805753,36.114022]}},{"type":"Feature","properties":{"church_name":"First United Pentecostal Church","AirtableRecord":"rec9dySi4A4r8UB5T","place_id":"ChIJTSCV6ryJZIgRoafXsL9hMgk","name":"First United Pentecostal Church Of Nashville","website":"http://www.firstchurchnashville.net/","latitude":"36.1123244","longitude":"-86.93187950","address":"7512 Charlotte Pike, Nashville, TN 37209, USA","phone_number":"+1 615-297-1450","last_updated":"2023-05-29 16:06"},"geometry":{"type":"Point","coordinates":[-86.931879,36.112324]}},{"type":"Feature","properties":{"church_name":"First Wesleyan Church","AirtableRecord":"recgSSRo7RtcjjhpC","place_id":"ChIJF4Q2XDZmZIgReAlQwhqGsxs","name":"First Wesleyan Church - Nashville","latitude":"36.1689146","longitude":"-86.75949660","address":"611 Shelby Ave, Nashville, TN 37206, USA","phone_number":"+1 615-686-4786","last_updated":"2023-05-29 16:06"},"geometry":{"type":"Point","coordinates":[-86.759497,36.168915]}},{"type":"Feature","properties":{"church_name":"Flatrock Community Church","default_website":"https://www.flatrockcc.org/","AirtableRecord":"recJMUsfHirXZBGpK","place_id":"ChIJOYIO-vdlZIgRNRMRZozwwnw","name":"Flatrock Community Church","website":"https://www.flatrockcc.org/","latitude":"36.1313353","longitude":"-86.77300110","address":"2020 Lindell Ave, Nashville, TN 37204, USA","phone_number":"+1 615-840-8718","last_updated":"2023-05-29 16:06"},"geometry":{"type":"Point","coordinates":[-86.773001,36.131335]}},{"type":"Feature","properties":{"church_name":"Forest Hills Baptist Church","default_website":"http://www.fhbc.org/","AirtableRecord":"recajmd4FIpJgh55v","place_id":"ChIJ6S1zAyt9ZIgROfrRrbbKjmI","name":"Forest Hills Baptist Church","website":"http://fhbc.org/","latitude":"36.0468763","longitude":"-86.86477860","address":"2101 Old Hickory Blvd, Nashville, TN 37215, USA","phone_number":"+1 615-373-8074","last_updated":"2023-05-29 16:06"},"geometry":{"type":"Point","coordinates":[-86.864779,36.046876]}},{"type":"Feature","properties":{"church_name":"Forest Hills United Methodist Church","AirtableRecord":"recfxjhIVJcnzFLNT","place_id":"ChIJO44I0lV7ZIgRrC_B_y8WizI","name":"Forest Hills United Methodist Church (FHUMC)","website":"http://www.foresthillsumc.org/","latitude":"36.0423359","longitude":"-86.81988960","address":"1250 Old Hickory Blvd, Brentwood, TN 37027, USA","phone_number":"+1 615-373-3131","last_updated":"2023-05-29 16:06"},"geometry":{"type":"Point","coordinates":[-86.81989,36.042336]}},{"type":"Feature","properties":{"church_name":"Fortieth Avenue Church Of Christ","AirtableRecord":"recsVmOoPVP3JNNtG","place_id":"ChIJsQMRfzhhZIgRFypoE4WIalk","name":"Fortieth Avenue Church-Christ","website":"https://www.40thavecoc.com/","latitude":"36.1561111","longitude":"-86.83416670","address":"616 40th Ave N, Nashville, TN 37209, USA","phone_number":"+1 615-321-3364","last_updated":"2023-05-29 16:06"},"geometry":{"type":"Point","coordinates":[-86.834167,36.156111]}},{"type":"Feature","properties":{"church_name":"Foster Avenue Church Of Christ","AirtableRecord":"recRenSFbj3y5MWSn","place_id":"ChIJSVDVRvZlZIgRfI9wCLsym-Y","name":"Foster Avenue Church of Christ","website":"https://fosterave.churchofchrist.info/","latitude":"36.1161553","longitude":"-86.74334890","address":"2614 Foster Ave, Nashville, TN 37210, USA","phone_number":"+1 615-833-4422","last_updated":"2023-05-29 16:06"},"geometry":{"type":"Point","coordinates":[-86.743349,36.116155]}},{"type":"Feature","properties":{"church_name":"Fourteenth Avenue Missionary Baptist Church","AirtableRecord":"rec39SIbk19id5QjD","place_id":"ChIJIQmYzCtnZIgRTLc4gokRl7Q","name":"Fourteenth Avenue Baptist Church","website":"http://www.fourteenthavembc.com/","latitude":"36.1801318","longitude":"-86.81756530","address":"2501 Buchanan St, Nashville, TN 37208, USA","phone_number":"+1 615-255-7167","last_updated":"2023-05-29 16:06"},"geometry":{"type":"Point","coordinates":[-86.817565,36.180132]}},{"type":"Feature","properties":{"church_name":"Friendship Community Church","AirtableRecord":"recVEAcQsZAZdTsOW","place_id":"ChIJl_-yXBs-ZIgREqgzu86m8o8","name":"Friendship Community Church","website":"https://achurchforyou.com/","latitude":"36.2178203","longitude":"-86.58187750","address":"15285 Lebanon Rd, Old Hickory, TN 37138, USA","phone_number":"+1 615-758-5358","last_updated":"2023-05-29 16:06"},"geometry":{"type":"Point","coordinates":[-86.581878,36.21782]}},{"type":"Feature","properties":{"church_name":"Friendship Pentecostal Church","AirtableRecord":"recDHNPtAwy5KR7j3","place_id":"ChIJIdkQajJhZIgRq0GQfgYlAMc","name":"Friendship Missionary Baptist Church","website":"http://www.friendshipchurchinc.org/","latitude":"36.1656412","longitude":"-86.82557140","address":"1109 32nd Ave N, Nashville, TN 37209, USA","phone_number":"+1 615-329-9363","last_updated":"2023-05-29 16:07"},"geometry":{"type":"Point","coordinates":[-86.825571,36.165641]}},{"type":"Feature","properties":{"church_name":"Full Gospel Church of Jesus Christ","AirtableRecord":"recSWd7igvSKeSTdn","place_id":"ChIJDRs48fJjZIgREk0gJI3XjZY","name":"The Gospel Church","website":"http://thegospelchurch.com/","latitude":"36.1394332","longitude":"-86.82705590","address":"101 Bowling Ave, Nashville, TN 37205, USA","last_updated":"2023-05-29 16:07"},"geometry":{"type":"Point","coordinates":[-86.827056,36.139433]}},{"type":"Feature","properties":{"church_name":"Full Gospel Mission Church","AirtableRecord":"recUDGsh9oVTEfDUH","place_id":"ChIJoTMq_mJvZIgRo6qQTGrTY3A","name":"Gospel Mission Church","website":"https://gospel-mission-church.business.site/","latitude":"36.1020593","longitude":"-86.73915390","address":"324 Antioch Pike, Nashville, TN 37211, USA","phone_number":"+1 615-833-7780","last_updated":"2023-05-29 16:06"},"geometry":{"type":"Point","coordinates":[-86.739154,36.102059]}},{"type":"Feature","properties":{"church_name":"Gallatin Road Baptist Church","AirtableRecord":"recLooCjpGe9sP99u","place_id":"ChIJX76AQrxCZIgRCvf_LPD9d10","name":"Gallatin Road Baptist Church","latitude":"36.2328321","longitude":"-86.72527530","address":"4809 Gallatin Pike, Nashville, TN 37216, USA","last_updated":"2023-05-29 16:07"},"geometry":{"type":"Point","coordinates":[-86.725275,36.232832]}},{"type":"Feature","properties":{"church_name":"Gateway Baptist Church","AirtableRecord":"recXwWBXtjo6whyOm","place_id":"ChIJl8EUPGtpZIgR1je2KadjCMo","name":"Gateway Missionary Baptist Church","website":"https://gatewaymbchurch.com/","latitude":"36.1557789","longitude":"-86.68014320","address":"2514 Lakeland Dr, Nashville, TN 37214, USA","last_updated":"2023-05-29 16:07"},"geometry":{"type":"Point","coordinates":[-86.680143,36.155779]}},{"type":"Feature","properties":{"church_name":"Generations Changers","AirtableRecord":"recMqrkhMY013UHjB","place_id":"ChIJhUL9i89rZIgREw55_MT_OS0","name":"Generation Changers Church","website":"http://gcchurch.tv/","latitude":"36.1623926","longitude":"-86.64920130","address":"224 Stewarts Ferry Pike, Nashville, TN 37214, USA","phone_number":"+1 615-883-6506","last_updated":"2023-05-29 16:07"},"geometry":{"type":"Point","coordinates":[-86.649201,36.162393]}},{"type":"Feature","properties":{"church_name":"Gethsemane Baptist Church","AirtableRecord":"recxrBhb7I3xB1FXq","place_id":"ChIJM_yGVgpdZIgRtRNYomm8I2I","name":"Gethsemane Baptist Church","website":"http://www.gbaptist.com/","latitude":"36.2444874","longitude":"-86.77968520","address":"3409 Brick Church Pike, Nashville, TN 37207, USA","phone_number":"+1 615-262-9132","last_updated":"2023-05-29 16:07"},"geometry":{"type":"Point","coordinates":[-86.779685,36.244487]}},{"type":"Feature","properties":{"church_name":"Glencliff Presbyterian Church","AirtableRecord":"recrmADeLlQAF4pwV","place_id":"ChIJsWww_TlvZIgRf3fV_zcF8UU","name":"Glencliff Presbyterian Church","latitude":"36.1204726","longitude":"-86.71708690","address":"Nashville, TN 37217, USA","phone_number":"+1 615-361-7858","last_updated":"2023-05-29 16:07"},"geometry":{"type":"Point","coordinates":[-86.717087,36.120473]}},{"type":"Feature","properties":{"church_name":"Glencliff United Methodist Church","AirtableRecord":"recqBTdFJxli1QYlQ","place_id":"ChIJl3NM7T9vZIgRcy_ArCiSzkw","name":"Glencliff United Methodist Church","website":"https://glencliff.umcchurches.org/","latitude":"36.1114185","longitude":"-86.72110240","address":"2901 Glencliff Rd, Nashville, TN 37211, USA","phone_number":"+1 615-833-5010","last_updated":"2023-05-29 16:07"},"geometry":{"type":"Point","coordinates":[-86.721102,36.111418]}},{"type":"Feature","properties":{"church_name":"Glendale Baptist Church","default_website":"https://www.glendalebaptist.org/#OurStory","AirtableRecord":"recFipwYuwopkPQ3U","place_id":"ChIJFedPz1lkZIgRxriG2YQSdKg","name":"Glendale Baptist Church","website":"http://www.glendalebaptist.org/","latitude":"36.0921630","longitude":"-86.79364830","address":"1021 Glendale Ln, Nashville, TN 37204, USA","phone_number":"+1 615-269-0926","last_updated":"2023-05-29 16:07"},"geometry":{"type":"Point","coordinates":[-86.793648,36.092163]}},{"type":"Feature","properties":{"church_name":"Glendale United Methodist Church","default_website":"http://glendaleumc.org/","AirtableRecord":"rec5gqNjpgU80Pe9w","place_id":"ChIJ9wYhi1ZkZIgRmI-n-WsP_x4","name":"Glendale United Methodist Church - Nashville","website":"http://glendaleumc.org/","latitude":"36.0927747","longitude":"-86.78785640","address":"900 Glendale Ln, Nashville, TN 37204, USA","phone_number":"+1 615-297-6233","last_updated":"2023-05-29 16:07"},"geometry":{"type":"Point","coordinates":[-86.787856,36.092775]}},{"type":"Feature","properties":{"church_name":"Good Samaritan Missionary Baptist Church","AirtableRecord":"recc7J3j4INDUjUKr","place_id":"ChIJHzVXw3FmZIgRta_w4qqHSNU","name":"Good Samaritan Missionary Baptist Church","latitude":"36.1427475","longitude":"-86.76832430","address":"509 Houston St, Nashville, TN 37203, USA","phone_number":"+1 615-256-2581","last_updated":"2023-05-29 16:07"},"geometry":{"type":"Point","coordinates":[-86.768324,36.142747]}},{"type":"Feature","properties":{"church_name":"Good Shepherd Presbyterian Church","AirtableRecord":"recx1wU2ODtcVd9dC","place_id":"ChIJJ1uF9cKHZIgRyQDxG9l2zzQ","name":"Good Shepherd Nashville","website":"http://goodshepherdnashville.org/","latitude":"36.0625857","longitude":"-86.94079930","address":"7501 Old Harding Pike, Nashville, TN 37221, USA","last_updated":"2023-05-28 21:21"},"geometry":{"type":"Point","coordinates":[-86.940799,36.062586]}},{"type":"Feature","properties":{"church_name":"Goodlettsville Church of Nazarene","AirtableRecord":"recljUCMJ86OtbWUP","place_id":"ChIJtQltRvdEZIgRKIcaY3oQ42g","name":"GoodNaz Church","website":"http://www.goodnaz.org/","latitude":"36.3359932","longitude":"-86.70560070","address":"400 Loretta Dr, Goodlettsville, TN 37072, USA","phone_number":"+1 615-859-2555","last_updated":"2023-05-29 16:07"},"geometry":{"type":"Point","coordinates":[-86.705601,36.335993]}},{"type":"Feature","properties":{"church_name":"Goodlettsville Cumberland Presbyterian Church","AirtableRecord":"recdNRFYuuJRTgOnE","place_id":"ChIJ3VxFvJFEZIgReDNK8kFGzIs","name":"Goodlettsville Church","website":"http://goodlettsville.church/","latitude":"36.3192415","longitude":"-86.71248020","address":"226 S Main St, Goodlettsville, TN 37072, USA","phone_number":"+1 615-859-5888","last_updated":"2023-05-29 16:07"},"geometry":{"type":"Point","coordinates":[-86.71248,36.319241]}},{"type":"Feature","properties":{"church_name":"Goodlettsville Pentecostal Church","AirtableRecord":"recnR9t2beF6HROJl","place_id":"ChIJBTX3kmBDZIgRuNBHyxfwt0E","name":"Goodlettsville Pentecostal Church","website":"http://www.gvillepc.com/","latitude":"36.3072222","longitude":"-86.72305560","address":"733 Old Dickerson Pike, Goodlettsville, TN 37072, USA","phone_number":"+1 615-859-9450","last_updated":"2023-05-29 16:07"},"geometry":{"type":"Point","coordinates":[-86.723056,36.307222]}},{"type":"Feature","properties":{"church_name":"Goodlettsville Southern Methodist Church","AirtableRecord":"recEm6CUwvgMOvubE","place_id":"ChIJXbtgsGJDZIgR6JHEa2aU3FI","name":"Goodlettsville Southern Methodist","latitude":"36.3047400","longitude":"-86.71181200","address":"300 Draper Cir, Goodlettsville, TN 37072, USA","phone_number":"+1 615-859-1785","last_updated":"2023-05-29 16:07"},"geometry":{"type":"Point","coordinates":[-86.711812,36.30474]}},{"type":"Feature","properties":{"church_name":"Gordon Memorial United Methodist Church","AirtableRecord":"recFMcRc13SwfQpLc","place_id":"ChIJW3P9t8VmZIgRdt77AZpzDoo","name":"Gordon Memorial United Methodist Church","website":"http://www.gordonmemorialumc.org/","latitude":"36.1625170","longitude":"-86.81058320","address":"2334 Herman St, Nashville, TN 37208, USA","phone_number":"+1 615-329-2779","last_updated":"2023-05-29 16:07"},"geometry":{"type":"Point","coordinates":[-86.810583,36.162517]}},{"type":"Feature","properties":{"church_name":"Grace Apostolic Church Inc.","AirtableRecord":"recB1fvYyjmjeNS2W","place_id":"ChIJ9Qim_rhnZIgRybHl84EmJwU","name":"Grace Apostolic Church","website":"http://www.gracechurchinc.org/","latitude":"36.1901041","longitude":"-86.76427710","address":"1100 Lischey Ave, Nashville, TN 37207, USA","phone_number":"+1 615-227-1012","last_updated":"2023-05-29 16:07"},"geometry":{"type":"Point","coordinates":[-86.764277,36.190104]}},{"type":"Feature","properties":{"church_name":"Grace Baptist Church","default_website":"http://www.gbcnashville.com/","AirtableRecord":"recbCBsCmfuo3k04Q","place_id":"ChIJ-6iGTl9cZIgR2KPTwLm58GM","name":"Grace Baptist Church of Nashville, Inc.","website":"http://www.gbcnashville.com/","latitude":"36.2799580","longitude":"-86.78265630","address":"1510 Old Hickory Blvd, Nashville, TN 37207, USA","phone_number":"+1 615-865-6262","last_updated":"2023-05-29 16:07"},"geometry":{"type":"Point","coordinates":[-86.782656,36.279958]}},{"type":"Feature","properties":{"church_name":"Grace Chapel","AirtableRecord":"recfdAkmi4RgclPWo","place_id":"ChIJS3y8x8CBZIgRBoXAhq2JsKc","name":"Grace Chapel Church","website":"http://www.gracechapel.net/","latitude":"35.8971740","longitude":"-86.95836700","address":"3279 Southall Rd, Franklin, TN 37064, USA","phone_number":"+1 615-591-5091","last_updated":"2023-05-29 16:07"},"geometry":{"type":"Point","coordinates":[-86.958367,35.897174]}},{"type":"Feature","properties":{"church_name":"Grace Church of the Nazarene","AirtableRecord":"recG7nPCqzya4S77P","place_id":"ChIJNca9s2RCZIgRwe_we5CkVuc","name":"Grace Church of the Nazarene","website":"http://www.welcometograce.church/","latitude":"36.2284877","longitude":"-86.69606850","address":"2620 Pennington Bend Rd, Nashville, TN 37214, USA","phone_number":"+1 615-889-7462","last_updated":"2023-05-29 16:07"},"geometry":{"type":"Point","coordinates":[-86.696068,36.228488]}},{"type":"Feature","properties":{"church_name":"Grace Community Church","default_website":"http://www.gccnashville.org/","AirtableRecord":"reclqwrEfk0NIGrDo","place_id":"ChIJx0WSxVZ7ZIgRzp-5YecvbGk","name":"Grace Community Church","website":"http://www.gccnashville.org/","latitude":"36.0399136","longitude":"-86.81752310","address":"5711 Granny White Pike, Brentwood, TN 37027, USA","phone_number":"+1 615-377-8997","last_updated":"2023-05-29 16:07"},"geometry":{"type":"Point","coordinates":[-86.817523,36.039914]}},{"type":"Feature","properties":{"church_name":"Grace Evangelistic Ministries","AirtableRecord":"rec75NT5prRHTyXxr","place_id":"ChIJQbvCgzl7ZIgRmqvGat1KLR4","name":"Grace Evangelistic Ministries","website":"http://gemworldwide.org/","latitude":"36.0375644","longitude":"-86.80736220","address":"100 Winners Cir N, Brentwood, TN 37027, USA","phone_number":"+1 615-373-2988","last_updated":"2023-05-29 16:07"},"geometry":{"type":"Point","coordinates":[-86.807362,36.037564]}},{"type":"Feature","properties":{"church_name":"Grace Interdenominational Church","AirtableRecord":"recz0ER0OH6eHC7Yq","place_id":"ChIJ8VNDVmhhZIgRwv4_ITesx5c","name":"GracePointe Church","website":"https://www.gracepointe.net/","latitude":"36.1313353","longitude":"-86.77300110","address":"2020 Lindell Ave, Nashville, TN 37204, USA","last_updated":"2023-05-29 16:07"},"geometry":{"type":"Point","coordinates":[-86.773001,36.131335]}},{"type":"Feature","properties":{"church_name":"Grace Place - Nashville Church","AirtableRecord":"recFi1mFKXeFQt0Vb","place_id":"ChIJhRGegCkVZIgRuPGLO0UlJxI","name":"Grace Place - Nashville Church","website":"http://www.nashvillechurch.com/","latitude":"36.1732454","longitude":"-86.57544950","address":"4316 Central Pike, Hermitage, TN 37076, USA","phone_number":"+1 615-883-1826","last_updated":"2023-05-29 16:07"},"geometry":{"type":"Point","coordinates":[-86.57545,36.173245]}},{"type":"Feature","properties":{"church_name":"Gracepointe Church","AirtableRecord":"recj2TVw83dMtlmHP","place_id":"ChIJ8VNDVmhhZIgRwv4_ITesx5c","name":"GracePointe Church","website":"https://www.gracepointe.net/","latitude":"36.1313353","longitude":"-86.77300110","address":"2020 Lindell Ave, Nashville, TN 37204, USA","last_updated":"2023-05-29 16:07"},"geometry":{"type":"Point","coordinates":[-86.773001,36.131335]}},{"type":"Feature","properties":{"church_name":"Grandview Church Of Christ","AirtableRecord":"rec8TwXayC9ipZur1","place_id":"ChIJFWQRb_FlZIgRbpEoS1po5SU","name":"Iglesia De Cristo Nashville","website":"http://iglesiadecristonashville.org/","latitude":"36.1169784","longitude":"-86.74850690","address":"2607 Nolensville Pk, Nashville, TN 37211, USA","phone_number":"+1 615-244-0608","last_updated":"2023-05-29 16:07"},"geometry":{"type":"Point","coordinates":[-86.748507,36.116978]}},{"type":"Feature","properties":{"church_name":"Granny White Church of Christ","default_website":"http://www.grannywhitechurch.org/","AirtableRecord":"recFxBUl2GQEQbn9D","place_id":"ChIJzyFojkZkZIgRqGGtRkgF_Ak","name":"Church of Christ in Green Hills","website":"http://cocgreenhills.org/","latitude":"36.1073977","longitude":"-86.79501900","address":"3805 Granny White Pike, Nashville, TN 37204, USA","phone_number":"+1 615-292-6679","last_updated":"2023-05-29 16:07"},"geometry":{"type":"Point","coordinates":[-86.795019,36.107398]}},{"type":"Feature","properties":{"church_name":"Greater Bethel AME","AirtableRecord":"reclp1zDY4plCuqzu","place_id":"ChIJSV2NM4lmZIgR3q-SyjRRhIw","name":"Greater Bethel AME Church","latitude":"36.1478279","longitude":"-86.78656030","address":"1300 South St, Nashville, TN 37212, USA","phone_number":"+1 615-256-1509","last_updated":"2023-05-29 16:07"},"geometry":{"type":"Point","coordinates":[-86.78656,36.147828]}},{"type":"Feature","properties":{"church_name":"Greater Building Church","AirtableRecord":"recgmVdilHCS8bBaT","place_id":"ChIJYWHwj3JmZIgRLAcJI_jpt7U","name":"Greater Love Kingdom Building Church","website":"http://www.glkbc.org/","latitude":"36.2753390","longitude":"-86.71684740","address":"320 E Campbell Rd, Madison, TN 37115, USA","last_updated":"2023-05-29 16:07"},"geometry":{"type":"Point","coordinates":[-86.716847,36.275339]}},{"type":"Feature","properties":{"church_name":"Greater Christ Temple Apostolic Church","AirtableRecord":"recirPkZQiNJ7Ovds","place_id":"ChIJaeyDMixkZIgRb7bpE4m7_Ak","name":"Greater Christ Temple Church","website":"http://www.greaterchristtemplechurch.org/","latitude":"36.2033703","longitude":"-86.79777360","address":"804 Youngs Ln, Nashville, TN 37207, USA","phone_number":"+1 615-297-7639","last_updated":"2023-05-29 16:07"},"geometry":{"type":"Point","coordinates":[-86.797774,36.20337]}},{"type":"Feature","properties":{"church_name":"Greater Faith Baptist Church","AirtableRecord":"recayLoVyVgt8uSo4","place_id":"ChIJV9m5YMRgZIgRHSwCKx8m1Oo","name":"Greater Faith Missionary Baptist Church","website":"http://greaterfaithnashville.org/","latitude":"36.1917177","longitude":"-86.83604420","address":"1803 County Hospital Rd, Nashville, TN 37218, USA","phone_number":"+1 615-891-7178","last_updated":"2023-05-29 16:07"},"geometry":{"type":"Point","coordinates":[-86.836044,36.191718]}},{"type":"Feature","properties":{"church_name":"Greater Harvest Church Of Christ","AirtableRecord":"rec6KABfEbIhgbqp9","place_id":"ChIJ7-7DGSVnZIgR9gzUvCNVyIQ","name":"Greater Harvest Church of God","website":"http://greaterharvestnashville.org/","latitude":"36.1866051","longitude":"-86.81004200","address":"2119 14th Ave N, Nashville, TN 37208, USA","phone_number":"+1 615-244-3878","last_updated":"2023-05-29 16:07"},"geometry":{"type":"Point","coordinates":[-86.810042,36.186605]}},{"type":"Feature","properties":{"church_name":"Greater Heights Missionary Baptist Church","AirtableRecord":"recv6LfHtPBXhLxE3","place_id":"ChIJCxPend9mZIgR0xuTOKawUwo","name":"Greater Heights Missionary","latitude":"36.1761271","longitude":"-86.80418880","address":"1600 14th Ave N, Nashville, TN 37208, USA","phone_number":"+1 615-712-6825","last_updated":"2023-05-29 16:07"},"geometry":{"type":"Point","coordinates":[-86.804189,36.176127]}},{"type":"Feature","properties":{"church_name":"Greater Mt. Zion Church - Nashville","AirtableRecord":"rec541TgehdEhEAHi","place_id":"ChIJC41k4xJmZIgRcMFiFHqqu5Y","name":"Greater Mt Zion Church-Nashville","website":"https://greatermountzion.wixsite.com/nashville","latitude":"36.1458586","longitude":"-86.75996750","address":"37 Trimble St, Nashville, TN 37210, USA","phone_number":"+1 615-678-6137","last_updated":"2023-05-29 16:07"},"geometry":{"type":"Point","coordinates":[-86.759968,36.145859]}},{"type":"Feature","properties":{"church_name":"Greater Nashville Church","AirtableRecord":"recYrBLYL868CzCnQ","place_id":"ChIJierGPnttZIgRknCiUBxHz58","name":"Greater Nashville Church","website":"http://www.greaternashvillechurch.org/","latitude":"36.0485144","longitude":"-86.61147950","address":"3646 Murfreesboro Pike, Antioch, TN 37013, USA","phone_number":"+1 615-280-6170","last_updated":"2023-05-29 16:07"},"geometry":{"type":"Point","coordinates":[-86.61148,36.048514]}},{"type":"Feature","properties":{"church_name":"Greater Nashville Unitarian Universalist Congregation","AirtableRecord":"recGTRZ4DHRgoyl4I","place_id":"ChIJJ7lSkEaIZIgR4I7BnCmC1dk","name":"Greater Nashville Unitarian Universalist Congregation","website":"http://www.nashvilleuu.org/","latitude":"36.0791521","longitude":"-86.92599530","address":"374 Hicks Rd, Nashville, TN 37221, USA","phone_number":"+1 615-673-7699","last_updated":"2023-05-29 16:07"},"geometry":{"type":"Point","coordinates":[-86.925995,36.079152]}},{"type":"Feature","properties":{"church_name":"Greater Revelations Bapt Church","AirtableRecord":"recmsrhlznoTyHL9c","place_id":"ChIJEW613eZmZIgRT-hJP14YDQM","name":"Greater Revelations Missionary Baptist Church","latitude":"36.1704351","longitude":"-86.79901580","address":"1027 12th Ave N, Nashville, TN 37208, USA","phone_number":"+1 615-329-1356","last_updated":"2023-05-29 16:07"},"geometry":{"type":"Point","coordinates":[-86.799016,36.170435]}},{"type":"Feature","properties":{"church_name":"Greater Zion Primitive Baptist Church","AirtableRecord":"rec4iAgCryEHqxyDO","place_id":"ChIJpawBXsNmZIgRH4dOWnQYG2M","name":"Greater Zion Primitive Baptist Church","website":"https://www.greaterzionprimitivebaptistchurch.org/","latitude":"36.1649599","longitude":"-86.80617960","address":"1817 Morena St, Nashville, TN 37208, USA","phone_number":"+1 615-202-9277","last_updated":"2023-05-29 16:07"},"geometry":{"type":"Point","coordinates":[-86.80618,36.16496]}},{"type":"Feature","properties":{"church_name":"Green Hill Baptist Church","AirtableRecord":"recF4EgPQO03WQ5hY","place_id":"ChIJrxFFMs4_ZIgREmgkvAczLus","name":"Green Hill Church","website":"http://www.greenhillchurch.com/","latitude":"36.2239859","longitude":"-86.54725080","address":"13251 Lebanon Rd, Mt. Juliet, TN 37122, USA","phone_number":"+1 615-758-7238","last_updated":"2023-05-29 16:07"},"geometry":{"type":"Point","coordinates":[-86.547251,36.223986]}},{"type":"Feature","properties":{"church_name":"Green Hill Church","AirtableRecord":"rec0VA20WKt2nnCl6","place_id":"ChIJnek33YZjZIgR6CCqSLs3cS4","name":"Green Hills Community Church","website":"http://www.greenhillscommunitychurch.com/","latitude":"36.0976090","longitude":"-86.82513700","address":"5035 Hillsboro Pike, Nashville, TN 37215, USA","phone_number":"+1 615-269-4521","last_updated":"2023-05-29 16:07"},"geometry":{"type":"Point","coordinates":[-86.825137,36.097609]}},{"type":"Feature","properties":{"church_name":"Green Hills Church","AirtableRecord":"recDwoVoSnA2tREk7","place_id":"ChIJnek33YZjZIgR6CCqSLs3cS4","name":"Green Hills Community Church","website":"http://www.greenhillscommunitychurch.com/","latitude":"36.0976090","longitude":"-86.82513700","address":"5035 Hillsboro Pike, Nashville, TN 37215, USA","phone_number":"+1 615-269-4521","last_updated":"2023-05-29 16:07"},"geometry":{"type":"Point","coordinates":[-86.825137,36.097609]}},{"type":"Feature","properties":{"church_name":"Green Hills Community Church","AirtableRecord":"recVxwxVSMC7FD5yH","place_id":"ChIJnek33YZjZIgR6CCqSLs3cS4","name":"Green Hills Community Church","website":"http://www.greenhillscommunitychurch.com/","latitude":"36.0976090","longitude":"-86.82513700","address":"5035 Hillsboro Pike, Nashville, TN 37215, USA","phone_number":"+1 615-269-4521","last_updated":"2023-05-29 16:07"},"geometry":{"type":"Point","coordinates":[-86.825137,36.097609]}},{"type":"Feature","properties":{"church_name":"Green Street Church","AirtableRecord":"recyzvgd6c2SsDoKe","place_id":"ChIJJ7Tg7BdmZIgRR965HwZKoW8","name":"Green Street Church of Christ","website":"http://www.greenstchurch.org/","latitude":"36.1527828","longitude":"-86.75251660","address":"146 Green St, Nashville, TN 37210, USA","phone_number":"+1 615-915-0253","last_updated":"2023-05-29 16:07"},"geometry":{"type":"Point","coordinates":[-86.752517,36.152783]}},{"type":"Feature","properties":{"church_name":"Green Street Church of Christ","AirtableRecord":"recH6zvXJeW9rG027","place_id":"ChIJJ7Tg7BdmZIgRR965HwZKoW8","name":"Green Street Church of Christ","website":"http://www.greenstchurch.org/","latitude":"36.1527828","longitude":"-86.75251660","address":"146 Green St, Nashville, TN 37210, USA","phone_number":"+1 615-915-0253","last_updated":"2023-05-29 16:07"},"geometry":{"type":"Point","coordinates":[-86.752517,36.152783]}},{"type":"Feature","properties":{"church_name":"Greenville United Methodist Church","AirtableRecord":"recI5AefBQrbQivC8","place_id":"ChIJcffRd0ZfZIgRvJqMh_vpCDY","name":"Greenville United Methodist Church","website":"http://www.umc.org/","latitude":"36.2965989","longitude":"-86.88729540","address":"5892 Clarksville Pike, Joelton, TN 37080, USA","phone_number":"+1 615-876-8174","last_updated":"2023-05-29 16:07"},"geometry":{"type":"Point","coordinates":[-86.887295,36.296599]}},{"type":"Feature","properties":{"church_name":"Hamilton United Methodist Church","AirtableRecord":"reclM60j6Frrvh1ix","place_id":"ChIJu3X4a6JtZIgRizTL62BNlQo","name":"Hamilton United Methodist Church","website":"https://www.hamilton-umc.org/","latitude":"36.0647275","longitude":"-86.62760020","address":"3105 Hamilton Church Rd, Antioch, TN 37013, USA","last_updated":"2023-05-29 16:07"},"geometry":{"type":"Point","coordinates":[-86.6276,36.064727]}},{"type":"Feature","properties":{"church_name":"Harper Road Freewill Baptist Church","AirtableRecord":"recLKcZHQK4JC2TPV","place_id":"ChIJtb1TIxf2ZIgR96kKzGIFoh4","name":"Harper Road Free Will Baptist","website":"http://www.harperroad.org/","latitude":"36.3275798","longitude":"-86.91448030","address":"7130 Harper Rd, Joelton, TN 37080, USA","phone_number":"+1 615-876-4993","last_updated":"2023-05-29 16:07"},"geometry":{"type":"Point","coordinates":[-86.91448,36.32758]}},{"type":"Feature","properties":{"church_name":"Harpeth Heights Baptist Church","default_website":"http://harpethheights.org/","AirtableRecord":"recvpKev3SSdmRDm2","place_id":"ChIJpaaozCWGZIgRjaLz0AhBYi0","name":"The Church at Harpeth Heights","website":"https://harpethheightschurch.com/","latitude":"36.0443770","longitude":"-86.95486090","address":"8063 TN-100, Nashville, TN 37221, USA","phone_number":"+1 615-646-5050","last_updated":"2023-05-29 16:07"},"geometry":{"type":"Point","coordinates":[-86.954861,36.044377]}},{"type":"Feature","properties":{"church_name":"Harpeth Hills Church of Christ","default_website":"http://www.harpethhills.org/","AirtableRecord":"reccKrfXdkvRDzAP6","place_id":"ChIJyTpzNtR8ZIgRmC2ZnfbuUSE","name":"Harpeth Hills Church of Christ","website":"https://www.harpethhills.org/","latitude":"36.0457196","longitude":"-86.85796510","address":"1949 Old Hickory Blvd, Brentwood, TN 37027, USA","phone_number":"+1 615-373-0601","last_updated":"2023-05-29 16:07"},"geometry":{"type":"Point","coordinates":[-86.857965,36.04572]}},{"type":"Feature","properties":{"church_name":"Hart Street Church of Christ","AirtableRecord":"recTaEjv12sHvb03i","place_id":"ChIJESEUNw1mZIgRVhrh7g3f5Lo","name":"Hart Street Church of Christ","website":"http://www.hartstcoc.org/index.html","latitude":"36.1419013","longitude":"-86.76120720","address":"11 Hart St, Nashville, TN 37210, USA","phone_number":"+1 615-256-7216","last_updated":"2023-05-29 16:07"},"geometry":{"type":"Point","coordinates":[-86.761207,36.141901]}},{"type":"Feature","properties":{"church_name":"Haywood Hills Baptist Church","AirtableRecord":"recMINAOqOgdm3MCR","place_id":"ChIJI75MyLRvZIgRnJDKlfFG5_k","name":"Haywood Hills Baptist Church","website":"http://haywoodhills.org/","latitude":"36.0698330","longitude":"-86.70186600","address":"255 Haywood Ln, Nashville, TN 37211, USA","phone_number":"+1 615-832-6909","last_updated":"2023-05-29 16:07"},"geometry":{"type":"Point","coordinates":[-86.701866,36.069833]}},{"type":"Feature","properties":{"church_name":"Heart Baptist Church","AirtableRecord":"recShZBUrCX5HrLSr","place_id":"ChIJo6CqQeBqZIgROpEkXglfvk8","name":"New Heart Baptist Church","latitude":"36.1731141","longitude":"-86.60210580","address":"5721 Old Hickory Blvd, Hermitage, TN 37076, USA","phone_number":"+1 615-944-0348","last_updated":"2023-05-29 16:07"},"geometry":{"type":"Point","coordinates":[-86.602106,36.173114]}},{"type":"Feature","properties":{"church_name":"Hendersonville Church of Christ","AirtableRecord":"recAF3gxlgyQ7mlUa","place_id":"ChIJy0eN2TJBZIgR9m3n4STE3Cw","name":"Hendersonville Church of Christ","website":"https://hendersonville.org/","latitude":"36.3008036","longitude":"-86.63347470","address":"107 Rockland Rd, Hendersonville, TN 37075, USA","phone_number":"+1 615-824-6622","last_updated":"2023-05-29 16:07"},"geometry":{"type":"Point","coordinates":[-86.633475,36.300804]}},{"type":"Feature","properties":{"church_name":"Hermitage Church of Christ","AirtableRecord":"recnhZfPS5KBeEDTd","place_id":"ChIJeSA7o2FqZIgRoS3U6SfciWE","name":"Hermitage Church of Christ","latitude":"36.1976831","longitude":"-86.62210480","address":"4004 Lebanon Pike, Hermitage, TN 37076, USA","phone_number":"+1 615-883-0654","last_updated":"2023-05-29 16:07"},"geometry":{"type":"Point","coordinates":[-86.622105,36.197683]}},{"type":"Feature","properties":{"church_name":"Hermitage Church of the Nazarene","AirtableRecord":"recOqk3Y3wq3YQSwh","place_id":"ChIJa2UrvxZAZIgRDEBcA7fsQK4","name":"Hermitage Church of Nazarene","website":"https://www.hermitagechurch.org/","latitude":"36.2298504","longitude":"-86.59629730","address":"4151 Saundersville Rd, Old Hickory, TN 37138, USA","phone_number":"+1 615-847-3335","last_updated":"2023-05-29 16:07"},"geometry":{"type":"Point","coordinates":[-86.596297,36.22985]}},{"type":"Feature","properties":{"church_name":"Hermitage Hills Baptist Church","AirtableRecord":"rec3nYoohK54MsKFf","place_id":"ChIJPZv7SF5qZIgRJc2PGMRZT1E","name":"Hermitage Hills Baptist Church","website":"http://www.hermitagehills.com/","latitude":"36.1922048","longitude":"-86.62328250","address":"3475 Lebanon Pike, Hermitage, TN 37076, USA","phone_number":"+1 615-883-5034","last_updated":"2023-05-29 16:07"},"geometry":{"type":"Point","coordinates":[-86.623283,36.192205]}},{"type":"Feature","properties":{"church_name":"Hermitage Presbyterian Church","AirtableRecord":"recciKel3gfnUqMYZ","place_id":"ChIJ9eWYOpxqZIgRk_OJusQZXgM","name":"Hermitage Presbyterian Church","website":"http://www.hermitagepc.org/","latitude":"36.2077171","longitude":"-86.60968510","address":"421 Highland View Dr, Hermitage, TN 37076, USA","phone_number":"+1 615-883-8944","last_updated":"2023-05-29 16:07"},"geometry":{"type":"Point","coordinates":[-86.609685,36.207717]}},{"type":"Feature","properties":{"church_name":"Hermitage United Methodist Church","AirtableRecord":"recceRRHSuLCmxNyU","place_id":"ChIJhTQ8Y4VqZIgRJDJurm59Cto","name":"Hermitage United Methodist Church","website":"http://humc.org/","latitude":"36.2046932","longitude":"-86.61267780","address":"205 Belinda Dr, Hermitage, TN 37076, USA","phone_number":"+1 615-883-3918","last_updated":"2023-05-29 16:07"},"geometry":{"type":"Point","coordinates":[-86.612678,36.204693]}},{"type":"Feature","properties":{"church_name":"Hickory Bend United Methodist Church","AirtableRecord":"recTI5ySGiOrsX7WR","place_id":"ChIJz1CQSqRrZIgRWJ2jW43wUrw","name":"Hickory Bend United Methodist Church","latitude":"36.1586675","longitude":"-86.62714270","address":"605 Stewarts Ferry Pkwy, Nashville, TN 37214, USA","phone_number":"+1 615-883-2321","last_updated":"2023-05-29 16:07"},"geometry":{"type":"Point","coordinates":[-86.627143,36.158667]}},{"type":"Feature","properties":{"church_name":"Hickory Grove Presbyterian Church","AirtableRecord":"recfH6Pr9WuJetPv0","place_id":"ChIJhanqZNA_ZIgRdoMIxOQH3Lk","name":"Hickory Grove Church PCA","website":"http://hickorygrovepca.org/","latitude":"36.2212613","longitude":"-86.55010630","address":"84 S Greenhill Rd, Mt. Juliet, TN 37122, USA","phone_number":"+1 615-754-8337","last_updated":"2023-05-29 16:07"},"geometry":{"type":"Point","coordinates":[-86.550106,36.221261]}},{"type":"Feature","properties":{"church_name":"Higher Ground Church","AirtableRecord":"recgqWvoqyO7miNXD","place_id":"ChIJ72BPTixnZIgRhW3ixA6MLcQ","name":"Higher Ground Church","latitude":"36.1852426","longitude":"-86.81879270","address":"26th Ave N, Nashville, TN 37208, USA","last_updated":"2023-05-29 16:07"},"geometry":{"type":"Point","coordinates":[-86.818793,36.185243]}},{"type":"Feature","properties":{"church_name":"Highland Park Church","default_website":"http://www.highlandparkchurch.org/","AirtableRecord":"reczKjh1Y5hXMH9qv","place_id":"ChIJGWeUO4FhZIgRCO5EKBoaYz4","name":"Highland Park Church","website":"http://www.highlandparkchurch.com/","latitude":"36.1390389","longitude":"-86.86624450","address":"5710 Knob Rd, Nashville, TN 37209, USA","phone_number":"+1 615-352-5710","last_updated":"2023-05-29 16:07"},"geometry":{"type":"Point","coordinates":[-86.866244,36.139039]}},{"type":"Feature","properties":{"church_name":"Hillcrest Seventh Day Adventist","AirtableRecord":"rec7FIjLqN9yJutFf","place_id":"ChIJVWruBCxnZIgR69NKyR0rFZw","name":"Nashville Hillcrest Seventh-day Adventist Church","website":"http://www.hillcrestnashville.org/","latitude":"36.1837792","longitude":"-86.81709410","address":"2010 25th Ave N, Nashville, TN 37208, USA","phone_number":"+1 615-256-5442","last_updated":"2023-05-29 16:07"},"geometry":{"type":"Point","coordinates":[-86.817094,36.183779]}},{"type":"Feature","properties":{"church_name":"Hillcrest United Methodist Church","AirtableRecord":"rec11WGw0vLdHHPNA","place_id":"ChIJ9ZjJU8RvZIgRLWC6qNEitgo","name":"Hillcrest United Methodist Church","website":"http://www.hillcrestumc.org/","latitude":"36.0579819","longitude":"-86.71323430","address":"5112 Raywood Ln, Nashville, TN 37211, USA","phone_number":"+1 615-832-0157","last_updated":"2023-05-29 16:07"},"geometry":{"type":"Point","coordinates":[-86.713234,36.057982]}},{"type":"Feature","properties":{"church_name":"Hillhurst Baptist Church","AirtableRecord":"recYukjbwbOssdzoi","place_id":"ChIJ6S1zAyt9ZIgROfrRrbbKjmI","name":"Forest Hills Baptist Church","website":"http://fhbc.org/","latitude":"36.0468763","longitude":"-86.86477860","address":"2101 Old Hickory Blvd, Nashville, TN 37215, USA","phone_number":"+1 615-373-8074","last_updated":"2023-05-29 16:06"},"geometry":{"type":"Point","coordinates":[-86.864779,36.046876]}},{"type":"Feature","properties":{"church_name":"Hillsboro Church of Christ","default_website":"http://www.hillsboro.org/","AirtableRecord":"recNs1JzRvnUnp8sv","place_id":"ChIJxwl7qm5jZIgRdzD3P3Jy5tc","name":"Hillsboro Church of Christ","website":"http://www.hillsboro.org/","latitude":"36.0776445","longitude":"-86.83613100","address":"5800 Hillsboro Pike, Nashville, TN 37215, USA","phone_number":"+1 615-665-0014","last_updated":"2023-05-29 16:07"},"geometry":{"type":"Point","coordinates":[-86.836131,36.077644]}},{"type":"Feature","properties":{"church_name":"Hillsboro Presbyterian Church","default_website":"http://hillsboropresbyterian.org/","AirtableRecord":"recDGK37Zs6VjNsMB","place_id":"ChIJd-9BnW5jZIgRJge5wEk86pI","name":"Hillsboro Presbyterian Church","website":"http://www.hboro.org/","latitude":"36.0754238","longitude":"-86.83699560","address":"5820 Hillsboro Pike, Nashville, TN 37215, USA","phone_number":"+1 615-665-0148","last_updated":"2023-05-29 16:07"},"geometry":{"type":"Point","coordinates":[-86.836996,36.075424]}},{"type":"Feature","properties":{"church_name":"Hilltop Chapel Church of Christ","AirtableRecord":"recct1QbBdroEhJtU","place_id":"ChIJWTXU5-NgZIgR5CJPfgqfvo0","name":"Hilltop Chapel Ch of Christ","latitude":"36.1824923","longitude":"-86.84775890","address":"1414 County Hospital Rd, Nashville, TN 37218, USA","phone_number":"+1 615-862-7021","last_updated":"2023-05-29 16:07"},"geometry":{"type":"Point","coordinates":[-86.847759,36.182492]}},{"type":"Feature","properties":{"church_name":"Hillview Church Of Christ","AirtableRecord":"recgetOavzbOnzsMD","place_id":"ChIJ82WO1L2JZIgRWwrFFHwL7_Q","name":"Hillview Church of Christ","website":"https://www.hillviewchurchofchrist.com/","latitude":"36.1131085","longitude":"-86.92748640","address":"7471 Charlotte Pike, Nashville, TN 37209, USA","phone_number":"+1 615-356-7318","last_updated":"2023-05-29 16:07"},"geometry":{"type":"Point","coordinates":[-86.927486,36.113109]}},{"type":"Feature","properties":{"church_name":"Hillwood Presbyterian Church","AirtableRecord":"recMUuiyY51aWXLTt","place_id":"ChIJZaYiaDliZIgR3-OTyMm0m2k","name":"Hillwood Presbyterian Church","website":"http://www.hillwoodpc.org/","latitude":"36.1188488","longitude":"-86.87587310","address":"6220 Hickory Valley Rd, Nashville, TN 37205, USA","phone_number":"+1 615-352-6310","last_updated":"2023-05-29 16:07"},"geometry":{"type":"Point","coordinates":[-86.875873,36.118849]}},{"type":"Feature","properties":{"church_name":"Hispanic Church of God","AirtableRecord":"reczfqzR91ZynIYD5","place_id":"ChIJL08Zo95cZIgRCgmRUTe30Ds","name":"Cornerstone Hispanic Church","latitude":"36.2675359","longitude":"-86.75767610","address":"1112 Darbytown Dr, Nashville, TN 37207, USA","phone_number":"+1 615-730-6921","last_updated":"2023-05-29 16:07"},"geometry":{"type":"Point","coordinates":[-86.757676,36.267536]}},{"type":"Feature","properties":{"church_name":"Hobson Pike Baptist Church","AirtableRecord":"recSQRqTI2Fa5KLdE","place_id":"ChIJ2ZRbMpoTZIgRdMZIk5FYZsI","name":"Hobson Pike Baptist Church","latitude":"36.1107504","longitude":"-86.53230260","address":"3525 Hobson Pike, Hermitage, TN 37076, USA","phone_number":"+1 615-476-5652","last_updated":"2023-05-29 16:07"},"geometry":{"type":"Point","coordinates":[-86.532303,36.11075]}},{"type":"Feature","properties":{"church_name":"Hobson United Methodist Church","default_website":"https://hobsonchurch.wordpress.com/","AirtableRecord":"recQvcIpqXwiAHyhN","place_id":"ChIJnUXI53ZoZIgRDcNnL31aHyE","name":"Hobson United Methodist Church","website":"https://hobsonchurch.wordpress.com/","latitude":"36.2352853","longitude":"-86.83039060","address":"4590 Clarksville Pike, Nashville, TN 37218, USA","phone_number":"+1 615-228-7334","last_updated":"2023-05-29 16:07"},"geometry":{"type":"Point","coordinates":[-86.830391,36.235285]}},{"type":"Feature","properties":{"church_name":"Holy Family Catholic Church","AirtableRecord":"rec9icJZ3v2inHXu3","place_id":"ChIJ37Nf2zl6ZIgRIsn6B37q9OE","name":"Holy Family Catholic Church","website":"http://www.holyfamilycc.com/","latitude":"35.9784251","longitude":"-86.76973480","address":"9100 Crockett Rd, Brentwood, TN 37027, USA","phone_number":"+1 615-373-4696","last_updated":"2023-05-29 16:07"},"geometry":{"type":"Point","coordinates":[-86.769735,35.978425]}},{"type":"Feature","properties":{"church_name":"Holy Name Catholic Church","AirtableRecord":"recGOh5564LTwftDT","place_id":"ChIJvTYCOEpmZIgR3BooG2O-ezU","name":"Holy Name Catholic Church","website":"http://www.holynamenashville.com/","latitude":"36.1727683","longitude":"-86.76312920","address":"521 Woodland St, Nashville, TN 37206, USA","phone_number":"+1 615-254-8847","last_updated":"2023-05-29 16:07"},"geometry":{"type":"Point","coordinates":[-86.763129,36.172768]}},{"type":"Feature","properties":{"church_name":"Holy Rosary Catholic Church","default_website":"http://www.holyrosarynashville.org/","AirtableRecord":"receyECDJR4BXKWS7","place_id":"ChIJ0zlDS3FpZIgRutvUVXpXvAs","name":"Church Of The Holy Rosary","website":"https://www.holyrosarynashville.org/","latitude":"36.1681839","longitude":"-86.67522670","address":"192 Graylynn Dr, Nashville, TN 37214, USA","phone_number":"+1 615-889-4065","last_updated":"2023-05-29 16:07"},"geometry":{"type":"Point","coordinates":[-86.675227,36.168184]}},{"type":"Feature","properties":{"church_name":"Holy Trinity Anglican Church","AirtableRecord":"recRgwZNboYVOjMj1","place_id":"ChIJ9_uSF2dmZIgRW0IAnyepyKA","name":"Church of the Holy Trinity","website":"http://chtnashville.com/","latitude":"36.1528470","longitude":"-86.77551080","address":"615 6th Ave S, Nashville, TN 37203, USA","phone_number":"+1 615-256-6359","last_updated":"2023-05-28 21:21"},"geometry":{"type":"Point","coordinates":[-86.775511,36.152847]}},{"type":"Feature","properties":{"church_name":"Holy Trinity Community Church","AirtableRecord":"recyM9yId9Xcz3EYl","place_id":"ChIJeQ62dB5iZIgRbLnm8nLHN6Q","name":"Holy Trinity Community Church","website":"http://www.htccnashville.com/","latitude":"36.1346946","longitude":"-86.88704040","address":"6727 Charlotte Pike #4235, Nashville, TN 37209, USA","phone_number":"+1 615-352-3838","last_updated":"2023-05-29 16:07"},"geometry":{"type":"Point","coordinates":[-86.88704,36.134695]}},{"type":"Feature","properties":{"church_name":"Holy Trinity Greek Orthodox Church","default_website":"http://holytrinitynashville.org/","AirtableRecord":"recOKZKphvIelch9e","place_id":"ChIJzzLlqBtlZIgRPBqJn3prxfk","name":"Holy Trinity Greek Orthodox","website":"http://www.holytrinitynashville.org/","latitude":"36.0758203","longitude":"-86.77530470","address":"4905 Franklin Pike, Nashville, TN 37220, USA","phone_number":"+1 615-333-1047","last_updated":"2023-05-29 16:07"},"geometry":{"type":"Point","coordinates":[-86.775305,36.07582]}},{"type":"Feature","properties":{"church_name":"Holy Trinity Lutheran Church","default_website":"http://www.holytrinitynashville.com/","AirtableRecord":"recWNWje9b5MEIVzA","place_id":"ChIJt9RBxeNjZIgRL8rco1rWFI0","name":"Holy Trinity Lutheran Church","website":"http://htnashville.org/","latitude":"36.0306672","longitude":"-86.96272920","address":"525 Sneed Rd W, Nashville, TN 37221, USA","phone_number":"+1 615-673-6289","last_updated":"2023-05-29 16:07"},"geometry":{"type":"Point","coordinates":[-86.962729,36.030667]}},{"type":"Feature","properties":{"church_name":"Holy Trinity Missionary Church","AirtableRecord":"recb67IVYUb6OrFMv","place_id":"ChIJ9_uSF2dmZIgRW0IAnyepyKA","name":"Church of the Holy Trinity","website":"http://chtnashville.com/","latitude":"36.1528470","longitude":"-86.77551080","address":"615 6th Ave S, Nashville, TN 37203, USA","phone_number":"+1 615-256-6359","last_updated":"2023-05-28 21:21"},"geometry":{"type":"Point","coordinates":[-86.775511,36.152847]}},{"type":"Feature","properties":{"church_name":"Home Church","AirtableRecord":"rec9Gge1fr4oJap3Q","place_id":"ChIJc-HK_nFmZIgR-6U90twyza0","name":"Home Church Nashville","website":"http://homechurch.co/","latitude":"36.2116210","longitude":"-86.73316520","address":"3511 Gallatin Pike, Nashville, TN 37216, USA","last_updated":"2023-05-29 16:07"},"geometry":{"type":"Point","coordinates":[-86.733165,36.211621]}},{"type":"Feature","properties":{"church_name":"Hope Baptist Church","AirtableRecord":"recW7UyDELQ2RwujM","place_id":"ChIJ58oSsY5mZIgRY7miTTVc_0s","name":"New Hope Missionary Baptist","website":"http://www.newhopembcnashville.org/","latitude":"36.1486111","longitude":"-86.78722220","address":"1303 Hawkins St, Nashville, TN 37203, USA","phone_number":"+1 615-254-0197","last_updated":"2023-05-29 16:07"},"geometry":{"type":"Point","coordinates":[-86.787222,36.148611]}},{"type":"Feature","properties":{"church_name":"Hope Church","AirtableRecord":"recfEmKZyE751Hq0K","place_id":"ChIJP60m3BtnZIgRRQee9KPt6zI","name":"Hope Church","website":"http://hopechurchnashville.com/","latitude":"36.1914764","longitude":"-86.74419230","address":"1215 Gallatin Ave, Nashville, TN 37206, USA","phone_number":"+1 615-543-6464","last_updated":"2023-05-29 16:07"},"geometry":{"type":"Point","coordinates":[-86.744192,36.191476]}},{"type":"Feature","properties":{"church_name":"Hope Community Church","AirtableRecord":"recLlQYfHh9REE00s","place_id":"ChIJ81HKChRhZIgRD8mOxilmfwo","name":"Hope Community Church","website":"https://www.hopewestnashville.com/","latitude":"36.1607264","longitude":"-86.84715270","address":"4905 Tennessee Ave, Nashville, TN 37209, USA","phone_number":"+1 615-852-6819","last_updated":"2023-05-29 16:07"},"geometry":{"type":"Point","coordinates":[-86.847153,36.160726]}},{"type":"Feature","properties":{"church_name":"Hopewell Baptist Church","AirtableRecord":"rec7SwKG2biDQs8RW","place_id":"ChIJG2ylR-JmZIgRkl8eeFCN4qA","name":"Hopewell Missionary Baptist Church","latitude":"36.1748583","longitude":"-86.79533350","address":"908 Monroe St, Nashville, TN 37208, USA","phone_number":"+1 615-256-4209","last_updated":"2023-05-29 16:07"},"geometry":{"type":"Point","coordinates":[-86.795333,36.174858]}},{"type":"Feature","properties":{"church_name":"Hosea Community Church","AirtableRecord":"recEkPFrzautQx9pD","place_id":"ChIJ3XVX9clmZIgR6sf7a53WnGc","name":"Hosea Community Church","latitude":"36.1571785","longitude":"-86.81693540","address":"526 27th Ave N, Nashville, TN 37209, USA","phone_number":"+1 615-320-5665","last_updated":"2023-05-29 16:07"},"geometry":{"type":"Point","coordinates":[-86.816935,36.157179]}}]}
