{"type":"FeatureCollection","features":[{"type":"Feature","properties":{"church_name":"8th Street Missionary Baptist Church","latitude":"36.1753155","longitude":"-86.79005650","website":"http://esmbchurch.org/","GeoJSON_export_address":"1223 6th Ave N, Nashville, TN 37208, USA","phone_number":"+1 615-256-6937","last_updated":"2023-05-28 21:20"},"geometry":{"type":"Point","coordinates":[-86.790057,36.175316]}},{"type":"Feature","properties":{"church_name":"Abundant Life Living Word Church","latitude":"36.2553580","longitude":"-86.67416500","website":"http://www.allwordchurch.org/","GeoJSON_export_address":"1150 Cheyenne Blvd, Madison, TN 37115, USA","phone_number":"+1 615-712-9382","last_updated":"2023-05-28 21:20"},"geometry":{"type":"Point","coordinates":[-86.674165,36.255358]}},{"type":"Feature","properties":{"church_name":"Acklen Avenue Church of Christ","latitude":"36.1342989","longitude":"-86.78251860","website":"http://www.acklen.org/","GeoJSON_export_address":"900 Acklen Ave, Nashville, TN 37203, USA","phone_number":"+1 615-292-5549","last_updated":"2023-05-28 21:20"},"geometry":{"type":"Point","coordinates":[-86.782519,36.134299]}},{"type":"Feature","properties":{"church_name":"Aldersgate UMC","latitude":"36.1868579","longitude":"-86.71645810","website":"http://aumcnashville.org/","GeoJSON_export_address":"512 Rosebank Ave, Nashville, TN 37206, USA","Affiliations":"United Methodist (UMC)","phone_number":"+1 615-226-2781","last_updated":"2023-05-28 21:20"},"geometry":{"type":"Point","coordinates":[-86.716458,36.186858]}},{"type":"Feature","properties":{"church_name":"All In One Kingdom Church","latitude":"36.1130908","longitude":"-86.74355010","website":"https://all-in-one-kindgom-church.business.site/","GeoJSON_export_address":"2803c Foster Ave, Nashville, TN 37211, USA","phone_number":"+1 615-403-3792","last_updated":"2023-05-28 21:20"},"geometry":{"type":"Point","coordinates":[-86.74355,36.113091]}},{"type":"Feature","properties":{"church_name":"All Saints Southern Episcopal Church","latitude":"36.1507210","longitude":"-86.84197320","website":"http://allsaints.tripod.com/","GeoJSON_export_address":"4513 Park Ave, Nashville, TN 37209, USA","phone_number":"+1 615-269-5017","last_updated":"2023-05-28 21:20"},"geometry":{"type":"Point","coordinates":[-86.841973,36.150721]}},{"type":"Feature","properties":{"church_name":"All Souls Church of Nashville","latitude":"36.2135046","longitude":"-86.76513270","website":"http://allsoulsnashville.com/","GeoJSON_export_address":"2526 Dickerson Pike, Nashville, TN 37207, USA","phone_number":"+1 512-808-7442","last_updated":"2023-05-28 21:20"},"geometry":{"type":"Point","coordinates":[-86.765133,36.213505]}},{"type":"Feature","properties":{"church_name":"Antioch Church of Christ","latitude":"36.0669592","longitude":"-86.68106470","website":"http://antiochcofc.org/","GeoJSON_export_address":"2142 Antioch Pike, Antioch, TN 37013, USA","phone_number":"+1 615-834-3063","last_updated":"2023-05-28 21:20"},"geometry":{"type":"Point","coordinates":[-86.681065,36.066959]}},{"type":"Feature","properties":{"church_name":"Antioch First Baptist Church","latitude":"36.0601809","longitude":"-86.66865960","website":"http://www.antiochfirstbaptist.org/","GeoJSON_export_address":"2601 Una Antioch Pike, Antioch, TN 37013, USA","phone_number":"+1 615-832-7486","last_updated":"2023-05-28 21:20"},"geometry":{"type":"Point","coordinates":[-86.66866,36.060181]}},{"type":"Feature","properties":{"church_name":"Antioch Jehovah's Witness Church","latitude":"36.0939520","longitude":"-86.63319800","website":"http://www.jw.org/","GeoJSON_export_address":"2504 Smith Springs Rd, Nashville, TN 37217, USA","phone_number":"+1 615-367-0514","last_updated":"2023-05-28 21:20"},"geometry":{"type":"Point","coordinates":[-86.633198,36.093952]}},{"type":"Feature","properties":{"church_name":"Antioch Missionary Baptist Church","latitude":"36.2080028","longitude":"-86.75192730","website":"https://www.antiochbaptistchurchnashville.com/","GeoJSON_export_address":"2037 Oakwood Ave, Nashville, TN 37207, USA","phone_number":"+1 615-226-1224","last_updated":"2023-05-28 21:20"},"geometry":{"type":"Point","coordinates":[-86.751927,36.208003]}},{"type":"Feature","properties":{"church_name":"Antioch United Methodist Church","latitude":"36.0522427","longitude":"-86.67700190","website":"http://www.antiochumc.net/","GeoJSON_export_address":"41 Tusculum Rd, Antioch, TN 37013, USA","phone_number":"+1 615-832-6248","last_updated":"2023-05-28 21:20"},"geometry":{"type":"Point","coordinates":[-86.677002,36.052243]}},{"type":"Feature","properties":{"church_name":"Arlington United Methodist Church","latitude":"36.1154227","longitude":"-86.69424520","website":"http://www.arlingtonum.org/","GeoJSON_export_address":"1360 Murfreesboro Pike, Nashville, TN 37217, USA","Affiliations":"United Methodist (UMC)","phone_number":"+1 615-361-4896","last_updated":"2023-05-28 21:20"},"geometry":{"type":"Point","coordinates":[-86.694245,36.115423]}},{"type":"Feature","properties":{"church_name":"Assumption Church","latitude":"36.1754320","longitude":"-86.79150370","website":"https://www.assumptionnashville.org/","GeoJSON_export_address":"1227 7th Ave N, Nashville, TN 37208, USA","phone_number":"+1 615-256-2729","last_updated":"2023-05-28 21:20"},"geometry":{"type":"Point","coordinates":[-86.791504,36.175432]}},{"type":"Feature","properties":{"church_name":"Axis Church","latitude":"36.1808526","longitude":"-86.78739980","website":"http://theaxischurch.org/","GeoJSON_export_address":"1423 2nd Ave N, Nashville, TN 37208, USA","phone_number":"+1 615-212-5337","last_updated":"2023-05-28 21:20"},"geometry":{"type":"Point","coordinates":[-86.7874,36.180853]}},{"type":"Feature","properties":{"church_name":"Barth Vernon UMC","latitude":"36.1576295","longitude":"-86.87162590","website":"http://barthvernonumc.blogspot.com/","GeoJSON_export_address":"6200 Robertson Ave, Nashville, TN 37209, USA","Affiliations":"United Methodist (UMC)","phone_number":"+1 615-356-0206","last_updated":"2023-05-28 21:20"},"geometry":{"type":"Point","coordinates":[-86.871626,36.157629]}},{"type":"Feature","properties":{"church_name":"Bass Street Missionary Baptist Church","latitude":"36.2488917","longitude":"-86.77556250","website":"https://www.facebook.com/bassstreetmbc/","GeoJSON_export_address":"3447 Brick Church Pike, Nashville, TN 37207, USA","phone_number":"+1 615-298-4622","last_updated":"2023-05-28 21:20"},"geometry":{"type":"Point","coordinates":[-86.775563,36.248892]}},{"type":"Feature","properties":{"church_name":"Beacon Baptist Church","latitude":"36.2752188","longitude":"-86.76151340","website":"https://www.facebook.com/beaconbaptistnashville/","GeoJSON_export_address":"4040 Marydale Dr, Nashville, TN 37207, USA","phone_number":"+1 615-865-5300","last_updated":"2023-05-28 21:20"},"geometry":{"type":"Point","coordinates":[-86.761513,36.275219]}},{"type":"Feature","properties":{"church_name":"Beech Creek Missionary Baptist Church","latitude":"36.1983643","longitude":"-86.82749530","website":"http://beech-baptist.lany.io/","GeoJSON_export_address":"3101 Curtis St, Nashville, TN 37218, USA","phone_number":"+1 615-255-6277","last_updated":"2023-05-28 21:20"},"geometry":{"type":"Point","coordinates":[-86.827495,36.198364]}},{"type":"Feature","properties":{"church_name":"Beech Grove UMC","latitude":"36.2897775","longitude":"-86.78030840","website":"http://beechgroveumc.net/","GeoJSON_export_address":"4318 Brick Church Pike, Whites Creek, TN 37189, USA","Affiliations":"United Methodist (UMC)","phone_number":"+1 615-876-7281","last_updated":"2023-05-28 21:20"},"geometry":{"type":"Point","coordinates":[-86.780308,36.289777]}},{"type":"Feature","properties":{"church_name":"Bell Road Church of Christ","latitude":"36.0447218","longitude":"-86.69923110","website":"https://www.facebook.com/BellRoadChurchofChrist/","GeoJSON_export_address":"1608 Bell Rd, Nashville, TN 37211, USA","phone_number":"+1 615-833-4444","last_updated":"2023-05-28 21:20"},"geometry":{"type":"Point","coordinates":[-86.699231,36.044722]}},{"type":"Feature","properties":{"church_name":"Bell Road Church of the Nazarene","latitude":"36.0755779","longitude":"-86.63448890","website":"http://bellroadnaz.com/","GeoJSON_export_address":"414 Bell Rd, Nashville, TN 37217, USA","phone_number":"+1 615-361-7133","last_updated":"2023-05-28 21:20"},"geometry":{"type":"Point","coordinates":[-86.634489,36.075578]}},{"type":"Feature","properties":{"church_name":"Belle Meade United Methodist Church","latitude":"36.1148049","longitude":"-86.86434360","website":"https://www.bellemeadeumc.org/","GeoJSON_export_address":"121 Davidson Rd, Nashville, TN 37205, USA","phone_number":"+1 615-352-6210","last_updated":"2023-05-28 21:20"},"geometry":{"type":"Point","coordinates":[-86.864344,36.114805]}},{"type":"Feature","properties":{"church_name":"Bellevue Baptist Church","latitude":"36.0750835","longitude":"-86.93578740","website":"https://bellevuebaptistnashville.org/","GeoJSON_export_address":"7400 US-70S, Nashville, TN 37221, USA","phone_number":"+1 615-646-2711","last_updated":"2023-05-28 21:20"},"geometry":{"type":"Point","coordinates":[-86.935787,36.075083]}},{"type":"Feature","properties":{"church_name":"Bellevue Christian Church","latitude":"36.0679168","longitude":"-86.93226430","website":"http://bccnashville.org/","GeoJSON_export_address":"7201 Old Harding Pike, Nashville, TN 37221, USA","phone_number":"+1 615-646-4894","last_updated":"2023-05-28 21:20"},"geometry":{"type":"Point","coordinates":[-86.932264,36.067917]}},{"type":"Feature","properties":{"church_name":"Bellevue Church of Christ","latitude":"36.0732367","longitude":"-86.93578260","website":"http://www.bellevue-church.com/","GeoJSON_export_address":"7401 Hwy 70 S, Nashville, TN 37221, USA","phone_number":"+1 615-646-9828","last_updated":"2023-05-28 21:20"},"geometry":{"type":"Point","coordinates":[-86.935783,36.073237]}},{"type":"Feature","properties":{"church_name":"Bellevue Jehovah's Witness Church","latitude":"36.0630091","longitude":"-86.93358370","website":"http://jw.org/","GeoJSON_export_address":"230 Bellevue Rd, Nashville, TN 37221, USA","phone_number":"+1 615-646-3990","last_updated":"2023-05-28 21:20"},"geometry":{"type":"Point","coordinates":[-86.933584,36.063009]}},{"type":"Feature","properties":{"church_name":"Bellevue Presbyterian Church","latitude":"36.0745081","longitude":"-86.93412780","website":"http://www.bellevuepres.org/","GeoJSON_export_address":"100 Cross Timbers Dr, Nashville, TN 37221, USA","phone_number":"+1 615-646-1667","last_updated":"2023-05-28 21:20"},"geometry":{"type":"Point","coordinates":[-86.934128,36.074508]}},{"type":"Feature","properties":{"church_name":"Bellevue United Methodist Church","latitude":"36.0625185","longitude":"-86.94087870","website":"http://www.bumc.com/","GeoJSON_export_address":"7501 Old Harding Pike, Nashville, TN 37221, USA","phone_number":"+1 615-646-4146","last_updated":"2023-05-28 21:20"},"geometry":{"type":"Point","coordinates":[-86.940879,36.062519]}},{"type":"Feature","properties":{"church_name":"Belmont Church","latitude":"36.1469688","longitude":"-86.79215240","website":"https://www.belmont.org/","GeoJSON_export_address":"68 Music Square E, Nashville, TN 37203, USA","phone_number":"+1 615-256-2123","last_updated":"2023-05-28 21:20"},"geometry":{"type":"Point","coordinates":[-86.792152,36.146969]}},{"type":"Feature","properties":{"church_name":"Belmont Heights Baptist Church","latitude":"36.1301487","longitude":"-86.79513180","website":"http://www.belmontheights.org/","GeoJSON_export_address":"2100 Belmont Blvd, Nashville, TN 37212, USA","phone_number":"+1 615-460-2422","last_updated":"2023-05-28 21:20"},"geometry":{"type":"Point","coordinates":[-86.795132,36.130149]}},{"type":"Feature","properties":{"church_name":"Belmont United Methodist Church","latitude":"36.1351760","longitude":"-86.79984900","website":"http://www.belmontumc.org/","GeoJSON_export_address":"2007 Acklen Ave, Nashville, TN 37212, USA","Affiliations":"United Methodist (UMC)","phone_number":"+1 615-383-0832","last_updated":"2023-05-28 21:20"},"geometry":{"type":"Point","coordinates":[-86.799849,36.135176]}},{"type":"Feature","properties":{"church_name":"Berean Baptist Church","latitude":"36.2240982","longitude":"-86.83585310","website":"http://www.bereanbaptistnashville.org/","GeoJSON_export_address":"4825 Fairmeade Ct, Nashville, TN 37218, USA","phone_number":"+1 615-876-4491","last_updated":"2023-05-28 21:20"},"geometry":{"type":"Point","coordinates":[-86.835853,36.224098]}},{"type":"Feature","properties":{"church_name":"Bethel Church of the Nazarene","latitude":"36.2302437","longitude":"-86.73867340","website":"http://bethelnaz.church/","GeoJSON_export_address":"455 Broadmoor Dr, Nashville, TN 37216, USA","phone_number":"+1 615-262-3396","last_updated":"2023-05-28 21:20"},"geometry":{"type":"Point","coordinates":[-86.738673,36.230244]}},{"type":"Feature","properties":{"church_name":"Bethel House of God","latitude":"36.2624540","longitude":"-86.68534090","website":"http://bethelhouseofgod.org/","GeoJSON_export_address":"1022 E Old Hickory Blvd, Madison, TN 37115, USA","phone_number":"+1 615-865-6357","last_updated":"2023-05-28 21:20"},"geometry":{"type":"Point","coordinates":[-86.685341,36.262454]}},{"type":"Feature","properties":{"church_name":"Bethel World Outreach Church","latitude":"36.0406625","longitude":"-86.81513180","website":"http://www.bethelworld.org/","GeoJSON_export_address":"5670 Granny White Pike, Brentwood, TN 37027, USA","phone_number":"+1 615-371-1000","last_updated":"2023-05-28 21:20"},"geometry":{"type":"Point","coordinates":[-86.815132,36.040663]}},{"type":"Feature","properties":{"church_name":"Bethlehem United Primitive Baptist Church","latitude":"36.1786218","longitude":"-86.81897700","website":"http://bethlehemunitedpbc.org/contact.htm","GeoJSON_export_address":"1700 26th Ave N, Nashville, TN 37208, USA","phone_number":"+1 615-255-4248","last_updated":"2023-05-28 21:20"},"geometry":{"type":"Point","coordinates":[-86.818977,36.178622]}},{"type":"Feature","properties":{"church_name":"Blakemore United Methodist Church","latitude":"36.1340016","longitude":"-86.82582180","website":"http://www.blakemoreumc.org/","GeoJSON_export_address":"3601 West End Ave, Nashville, TN 37205, USA","Affiliations":"United Methodist (UMC)","phone_number":"+1 615-297-6519","last_updated":"2023-05-28 19:57"},"geometry":{"type":"Point","coordinates":[-86.825822,36.134002]}},{"type":"Feature","properties":{"church_name":"Blueprint Church","latitude":"36.3195008","longitude":"-86.71258750","website":"https://www.blueprintchurch.tv/?utm_source=google&utm_medium=organic&utm_campaign=google_my_business","GeoJSON_export_address":"226 S Main St, Goodlettsville, TN 37072, USA","phone_number":"+1 615-541-9580","last_updated":"2023-05-28 19:57"},"geometry":{"type":"Point","coordinates":[-86.712587,36.319501]}},{"type":"Feature","properties":{"church_name":"Bordeaux S.D.A. Church","latitude":"36.2359649","longitude":"-86.82814460","website":"http://www.bordeaux22.adventistchurchconnect.org/","GeoJSON_export_address":"5121 Buena Vista Pike, Nashville, TN 37218, USA","phone_number":"+1 615-876-3630","last_updated":"2023-05-28 19:57"},"geometry":{"type":"Point","coordinates":[-86.828145,36.235965]}},{"type":"Feature","properties":{"church_name":"Born Again Church","latitude":"36.2056930","longitude":"-86.80364390","website":"http://bornagainchurch.org/","GeoJSON_export_address":"858 W Trinity Ln, Nashville, TN 37207, USA","phone_number":"+1 615-228-9287","last_updated":"2023-05-28 19:57"},"geometry":{"type":"Point","coordinates":[-86.803644,36.205693]}},{"type":"Feature","properties":{"church_name":"Braden United Methodist Church","latitude":"36.1757671","longitude":"-86.75867550","website":"http://bradenmemorialumc.com/","GeoJSON_export_address":"803 Main St, Nashville, TN 37206, USA","phone_number":"+1 615-256-1323","last_updated":"2023-05-28 19:57"},"geometry":{"type":"Point","coordinates":[-86.758675,36.175767]}},{"type":"Feature","properties":{"church_name":"Brenthaven Cumberland Presbyterian","latitude":"36.0190881","longitude":"-86.79556310","website":"http://brenthaven.org/","GeoJSON_export_address":"516 Franklin Rd, Brentwood, TN 37027, USA","phone_number":"+1 615-373-4826","last_updated":"2023-05-28 19:57"},"geometry":{"type":"Point","coordinates":[-86.795563,36.019088]}},{"type":"Feature","properties":{"church_name":"Brentwood Baptist Church","latitude":"35.9966870","longitude":"-86.80281800","website":"http://www.brentwoodbaptist.com/","GeoJSON_export_address":"7777 Concord Rd, Brentwood, TN 37027, USA","Affiliations":"Southern Baptist (SBC)","phone_number":"+1 615-324-6100","last_updated":"2023-05-28 19:57"},"geometry":{"type":"Point","coordinates":[-86.802818,35.996687]}},{"type":"Feature","properties":{"church_name":"Brentwood Church of Christ","latitude":"36.0350933","longitude":"-86.81547290","website":"https://brentwoodchurch.com/","GeoJSON_export_address":"208 Granny White Pike, Brentwood, TN 37027, USA","phone_number":"+1 615-373-0511","last_updated":"2023-05-28 19:57"},"geometry":{"type":"Point","coordinates":[-86.815473,36.035093]}},{"type":"Feature","properties":{"church_name":"Brentwood Hills Church of Christ","latitude":"36.0629712","longitude":"-86.77259220","website":"http://brentwoodhills.org/","GeoJSON_export_address":"5120 Franklin Pike, Nashville, TN 37220, USA","phone_number":"+1 615-832-2541","last_updated":"2023-05-28 19:57"},"geometry":{"type":"Point","coordinates":[-86.772592,36.062971]}},{"type":"Feature","properties":{"church_name":"Brentwood United Methodist Church","latitude":"36.0280281","longitude":"-86.79373250","website":"http://www.bumc.net/","GeoJSON_export_address":"309 Franklin Rd, Brentwood, TN 37027, USA","phone_number":"+1 615-373-3663","last_updated":"2023-05-28 19:57"},"geometry":{"type":"Point","coordinates":[-86.793733,36.028028]}},{"type":"Feature","properties":{"church_name":"Bridge Community Church","latitude":"36.0749358","longitude":"-86.77216270","website":"http://www.bridgeforchrist.com/","GeoJSON_export_address":"4916 Franklin Pike, Nashville, TN 37220, USA","phone_number":"+1 615-678-8725","last_updated":"2023-05-28 20:03"},"geometry":{"type":"Point","coordinates":[-86.772163,36.074936]}},{"type":"Feature","properties":{"church_name":"Bridges Nashville","latitude":"36.1538350","longitude":"-86.77226800","website":"https://bridgesnashville.com/","GeoJSON_export_address":"618 4th Ave S, Nashville, TN 37210, USA","phone_number":"+1 615-436-2378","last_updated":"2023-05-28 19:57"},"geometry":{"type":"Point","coordinates":[-86.772268,36.153835]}},{"type":"Feature","properties":{"church_name":"Broadmoor Baptist Church","latitude":"36.2295569","longitude":"-86.73532470","website":"https://www.broadmoornashville.com/","GeoJSON_export_address":"518 Broadmoor Dr, Nashville, TN 37216, USA","phone_number":"+1 615-262-1631","last_updated":"2023-05-28 20:03"},"geometry":{"type":"Point","coordinates":[-86.735325,36.229557]}},{"type":"Feature","properties":{"church_name":"Brook Hollow Baptist Church","latitude":"36.1163655","longitude":"-86.88671810","website":"http://www.brookhollow.net/","GeoJSON_export_address":"678 Brk Holw Rd, Nashville, TN 37205, USA","phone_number":"+1 615-352-1295","last_updated":"2023-05-28 21:21"},"geometry":{"type":"Point","coordinates":[-86.886718,36.116366]}},{"type":"Feature","properties":{"church_name":"Brookmeade Congregational UCC","latitude":"36.1178919","longitude":"-86.87794620","website":"https://brookmeadeucc.org/","GeoJSON_export_address":"700 Bresslyn Rd, Nashville, TN 37205, USA","phone_number":"+1 615-352-4702","last_updated":"2023-05-28 21:21"},"geometry":{"type":"Point","coordinates":[-86.877946,36.117892]}},{"type":"Feature","properties":{"church_name":"Brookside Church Of Christ","latitude":"36.0589672","longitude":"-86.70852210","website":"https://www.facebook.com/Brookside-Church-of-Christ-107501301302493","GeoJSON_export_address":"335 Tusculum Rd, Nashville, TN 37211, USA","phone_number":"+1 615-794-7021","last_updated":"2023-05-28 21:21"},"geometry":{"type":"Point","coordinates":[-86.708522,36.058967]}},{"type":"Feature","properties":{"church_name":"Brush Hill Church (Cumberland Presbyterian)","latitude":"36.2217667","longitude":"-86.71195340","website":"http://brushhillchurch.org/","GeoJSON_export_address":"3705 Brush Hill Rd, Nashville, TN 37216, USA","phone_number":"+1 615-227-2504","last_updated":"2023-05-28 21:21"},"geometry":{"type":"Point","coordinates":[-86.711953,36.221767]}},{"type":"Feature","properties":{"church_name":"Buena Vista Church of Christ","latitude":"36.2033457","longitude":"-86.82056050","website":"https://www.buenavistachurchofc.com/","GeoJSON_export_address":"2520 Buena Vista Pike, Nashville, TN 37218, USA","phone_number":"+1 615-256-7331","last_updated":"2023-05-28 21:21"},"geometry":{"type":"Point","coordinates":[-86.82056,36.203346]}},{"type":"Feature","properties":{"church_name":"Calvary Baptist Church","latitude":"36.1624181","longitude":"-86.81398770","website":"https://www.mtcalvarymadisonchurch.org/","GeoJSON_export_address":"1238 Briarville Road, Madison, TN 37115, USA","phone_number":"+1 615-329-1063","last_updated":"2023-05-28 21:21"},"geometry":{"type":"Point","coordinates":[-86.813988,36.162418]}},{"type":"Feature","properties":{"church_name":"Calvary Chapel Long Hollow","latitude":"36.3387480","longitude":"-86.68021800","website":"http://www.cclonghollow.com/","GeoJSON_export_address":"1001 Willis Branch Rd, Goodlettsville, TN 37072, USA","phone_number":"+1 615-851-3088","last_updated":"2023-05-28 21:21"},"geometry":{"type":"Point","coordinates":[-86.680218,36.338748]}},{"type":"Feature","properties":{"church_name":"Calvary Church - Korean American","latitude":"36.0680941","longitude":"-86.66412960","GeoJSON_export_address":"630 Richards Rd, Antioch, TN 37013, USA","last_updated":"2023-05-28 21:21"},"geometry":{"type":"Point","coordinates":[-86.66413,36.068094]}},{"type":"Feature","properties":{"church_name":"Calvary Pentecostal Church","latitude":"36.2800945","longitude":"-86.77535320","GeoJSON_export_address":"1390 Old Hickory Blvd, Nashville, TN 37207, USA","last_updated":"2023-05-28 21:21"},"geometry":{"type":"Point","coordinates":[-86.775353,36.280094]}},{"type":"Feature","properties":{"church_name":"Calvary United Methodist Church","latitude":"36.1103586","longitude":"-86.81246430","website":"http://www.calvaryumc.com/","GeoJSON_export_address":"3701 Hillsboro Pike, Nashville, TN 37215, USA","Affiliations":"United Methodist (UMC)","phone_number":"+1 615-297-7562","last_updated":"2023-05-28 21:21"},"geometry":{"type":"Point","coordinates":[-86.812464,36.110359]}},{"type":"Feature","properties":{"church_name":"Campbell Road Church Of Christ","latitude":"36.0447218","longitude":"-86.69923110","GeoJSON_export_address":"1608 Bell Rd, Nashville, TN 37211, USA","phone_number":"+1 615-833-4444","last_updated":"2023-05-28 21:20"},"geometry":{"type":"Point","coordinates":[-86.699231,36.044722]}},{"type":"Feature","properties":{"church_name":"Cane Ridge Free Will Baptist Church","latitude":"36.0085974","longitude":"-86.66388460","website":"http://www.caneridgefwb.org/","GeoJSON_export_address":"13984 Old Hickory Blvd, Antioch, TN 37013, USA","phone_number":"+1 615-941-1575","last_updated":"2023-05-28 21:21"},"geometry":{"type":"Point","coordinates":[-86.663885,36.008597]}},{"type":"Feature","properties":{"church_name":"Capers Memorial CME Church","latitude":"36.1593139","longitude":"-86.79504420","GeoJSON_export_address":"319 15th Ave N, Nashville, TN 37203, USA","phone_number":"+1 615-329-2082","last_updated":"2023-05-28 21:21"},"geometry":{"type":"Point","coordinates":[-86.795044,36.159314]}},{"type":"Feature","properties":{"church_name":"Cathedral of Praise","latitude":"36.2196175","longitude":"-86.83629250","website":"http://www.cathedralpraise.org/","GeoJSON_export_address":"4300 Clarksville Pike, Nashville, TN 37218, USA","phone_number":"+1 615-876-8740","last_updated":"2023-05-28 21:21"},"geometry":{"type":"Point","coordinates":[-86.836292,36.219617]}},{"type":"Feature","properties":{"church_name":"Cathedral of the Incarnation","latitude":"36.1507870","longitude":"-86.79966500","website":"http://cathedralnashville.org/","GeoJSON_export_address":"2015 West End Ave, Nashville, TN 37203, USA","phone_number":"+1 615-327-2330","last_updated":"2023-05-28 21:21"},"geometry":{"type":"Point","coordinates":[-86.799665,36.150787]}},{"type":"Feature","properties":{"church_name":"Celebrate Life Community Church","latitude":"36.2635439","longitude":"-86.69344590","GeoJSON_export_address":"801 E Old Hickory Blvd #191, Madison, TN 37115, USA","phone_number":"+1 615-865-7255","last_updated":"2023-05-28 21:21"},"geometry":{"type":"Point","coordinates":[-86.693446,36.263544]}},{"type":"Feature","properties":{"church_name":"Central Pike Church of Christ","latitude":"36.1734896","longitude":"-86.58125350","website":"http://centralpikechurchofchrist.org/","GeoJSON_export_address":"4240 Central Pike, Hermitage, TN 37076, USA","phone_number":"+1 615-883-2696","last_updated":"2023-05-28 21:21"},"geometry":{"type":"Point","coordinates":[-86.581254,36.17349]}},{"type":"Feature","properties":{"church_name":"Charlotte Avenue Church of Christ","latitude":"36.1320698","longitude":"-86.89318330","website":"https://charlotteheights.org/","GeoJSON_export_address":"6833 Old Charlotte Pike, Nashville, TN 37209, USA","phone_number":"+1 615-356-4367","last_updated":"2023-05-28 21:21"},"geometry":{"type":"Point","coordinates":[-86.893183,36.13207]}},{"type":"Feature","properties":{"church_name":"Charlotte Road Baptist Church","latitude":"36.1112149","longitude":"-86.93043110","website":"http://www.crbcnashville.org/","GeoJSON_export_address":"7511 Charlotte Pike, Nashville, TN 37209, USA","phone_number":"+1 615-356-5810","last_updated":"2023-05-28 21:21"},"geometry":{"type":"Point","coordinates":[-86.930431,36.111215]}},{"type":"Feature","properties":{"church_name":"Christ Christian Fellowship Church","latitude":"36.0030520","longitude":"-86.62729250","website":"http://lighthousenashville.org/","GeoJSON_export_address":"210 Battle Rd, Antioch, TN 37013, USA","phone_number":"+1 615-331-6241","last_updated":"2023-05-28 21:21"},"geometry":{"type":"Point","coordinates":[-86.627292,36.003052]}},{"type":"Feature","properties":{"church_name":"Christ Church","latitude":"36.1588225","longitude":"-86.78321180","website":"http://www.christchurchnashville.org/","GeoJSON_export_address":"15354 Old Hickory Blvd, Nashville, TN 37211, USA","phone_number":"+1 615-255-7729","last_updated":"2023-05-28 21:21"},"geometry":{"type":"Point","coordinates":[-86.783212,36.158822]}},{"type":"Feature","properties":{"church_name":"Christ Church Cathedral","latitude":"36.1588225","longitude":"-86.78321180","website":"http://christcathedral.org/","GeoJSON_export_address":"900 Broadway, Nashville, TN 37203, USA","phone_number":"+1 615-255-7729","last_updated":"2023-05-28 21:21"},"geometry":{"type":"Point","coordinates":[-86.783212,36.158822]}},{"type":"Feature","properties":{"church_name":"Christ Church Nashville","latitude":"36.0419227","longitude":"-86.72789570","website":"http://www.christchurchnashville.org/","GeoJSON_export_address":"15354 Old Hickory Blvd, Nashville, TN 37211, USA","phone_number":"+1 615-834-6171","last_updated":"2023-05-28 21:21"},"geometry":{"type":"Point","coordinates":[-86.727896,36.041923]}},{"type":"Feature","properties":{"church_name":"Christ Church Of The Nazarene","latitude":"36.0755779","longitude":"-86.63448890","website":"https://www.facebook.com/ChristChurchOfTheNazarene/","GeoJSON_export_address":"744 E Argyle Ave, Nashville, TN 37203, USA","phone_number":"+1 615-361-7133","last_updated":"2023-05-28 21:20"},"geometry":{"type":"Point","coordinates":[-86.634489,36.075578]}},{"type":"Feature","properties":{"church_name":"Christ Church Pentecostal","latitude":"36.1829290","longitude":"-86.81563640","GeoJSON_export_address":"2006 24th Ave N, Nashville, TN 37208, USA","last_updated":"2023-05-28 21:21"},"geometry":{"type":"Point","coordinates":[-86.815636,36.182929]}},{"type":"Feature","properties":{"church_name":"Christ Community Church","latitude":"36.1857213","longitude":"-86.76513120","website":"http://christcommunity.org/","GeoJSON_export_address":"1215 Hillsboro Rd, Franklin, TN 37069, USA","phone_number":"'+1(615) 468-2200","last_updated":"2023-05-28 21:21"},"geometry":{"type":"Point","coordinates":[-86.765131,36.185721]}},{"type":"Feature","properties":{"church_name":"Christ for The Nations Church","latitude":"36.1251068","longitude":"-86.71263190","website":"https://www.thenations.church/","GeoJSON_export_address":"308 E Thompson Ln, Nashville, TN 37217, USA","phone_number":"+1 615-200-0034","last_updated":"2023-05-28 21:21"},"geometry":{"type":"Point","coordinates":[-86.712632,36.125107]}},{"type":"Feature","properties":{"church_name":"Christ Lutheran Church","latitude":"36.0678503","longitude":"-86.70725650","website":"https://www.clcnashville.org/","GeoJSON_export_address":"299 Haywood Ln, Nashville, TN 37211, USA","phone_number":"+1 615-833-0476","last_updated":"2023-05-28 21:21"},"geometry":{"type":"Point","coordinates":[-86.707256,36.06785]}},{"type":"Feature","properties":{"church_name":"Christ Only Church","latitude":"36.0407476","longitude":"-86.58105820","GeoJSON_export_address":"4121 Pepperwood Dr, Antioch, TN 37013, USA","phone_number":"+1 615-887-0298","last_updated":"2023-05-28 21:21"},"geometry":{"type":"Point","coordinates":[-86.581058,36.040748]}},{"type":"Feature","properties":{"church_name":"Christ Presbyterian Church","latitude":"36.0491846","longitude":"-86.87898130","website":"http://christpres.org/","GeoJSON_export_address":"2323 Old Hickory Blvd, Nashville, TN 37215, USA","Affiliations":"Presbyterian Church in America (PCA)","phone_number":"+1 615-373-2311","last_updated":"2023-05-28 21:21"},"geometry":{"type":"Point","coordinates":[-86.878981,36.049185]}},{"type":"Feature","properties":{"church_name":"Christ the King Catholic Church","latitude":"36.1189173","longitude":"-86.79710900","website":"http://www.ctk.org/","GeoJSON_export_address":"3001 Belmont Blvd, Nashville, TN 37212, USA","phone_number":"+1 615-292-2884","last_updated":"2023-05-28 21:21"},"geometry":{"type":"Point","coordinates":[-86.797109,36.118917]}},{"type":"Feature","properties":{"church_name":"Christ's Glorious Tabernacle Church","latitude":"36.1931485","longitude":"-86.74750710","website":"http://www.tabernacleofglory.com/","GeoJSON_export_address":"945 Douglas Ave, Nashville, TN 37206, USA","phone_number":"+1 615-297-4562","last_updated":"2023-05-28 21:21"},"geometry":{"type":"Point","coordinates":[-86.747507,36.193148]}},{"type":"Feature","properties":{"church_name":"Christian Life Church","latitude":"36.1145983","longitude":"-86.74754170","website":"http://www.nashvillelifechurch.com/","GeoJSON_export_address":"2639 Nolensville Pk, Nashville, TN 37211, USA","phone_number":"+1 615-838-4117","last_updated":"2023-05-28 21:21"},"geometry":{"type":"Point","coordinates":[-86.747542,36.114598]}},{"type":"Feature","properties":{"church_name":"The Church In Nashville","latitude":"36.1469688","longitude":"-86.79215240","website":"https://churchinnashville.org/","GeoJSON_export_address":"6105 Nolensville Pike, Nashville, TN 37211, USA","phone_number":"+1 615-256-2123","last_updated":"2023-05-28 21:20"},"geometry":{"type":"Point","coordinates":[-86.792152,36.146969]}},{"type":"Feature","properties":{"church_name":"Church Inc Faith","latitude":"36.2018340","longitude":"-86.73652290","website":"http://www.victoriousliving.org/","GeoJSON_export_address":"1208 Litton Ave, Nashville, TN 37216, USA","phone_number":"+1 615-226-2255","last_updated":"2023-05-28 21:21"},"geometry":{"type":"Point","coordinates":[-86.736523,36.201834]}},{"type":"Feature","properties":{"church_name":"Church of Christ","latitude":"36.1680595","longitude":"-86.80051030","website":"http://jacksonst.org/","GeoJSON_export_address":"1408 Jackson St, Nashville, TN 37208, USA","phone_number":"+1 615-321-0530","last_updated":"2023-05-28 21:21"},"geometry":{"type":"Point","coordinates":[-86.80051,36.168059]}},{"type":"Feature","properties":{"church_name":"Church of Christ in Bordeaux","latitude":"36.1956806","longitude":"-86.84045760","GeoJSON_export_address":"3715 John Mallette Dr, Nashville, TN 37218, USA","phone_number":"+1 615-454-5174","last_updated":"2023-05-28 21:21"},"geometry":{"type":"Point","coordinates":[-86.840458,36.195681]}},{"type":"Feature","properties":{"church_name":"Church of Christ at Broadmoor","latitude":"36.2305441","longitude":"-86.75162570","website":"https://broadmoorchurch.com/","GeoJSON_export_address":"264 Broadmoor Dr, Nashville, TN 37207, USA","phone_number":"+1 615-228-0449","last_updated":"2023-05-28 21:21"},"geometry":{"type":"Point","coordinates":[-86.751626,36.230544]}},{"type":"Feature","properties":{"church_name":"Church of Christ at Kings Lane","latitude":"36.2194043","longitude":"-86.83262060","website":"http://www.churchofchristatkingslane.com/","GeoJSON_export_address":"3274 Kings Ln, Nashville, TN 37218, USA","phone_number":"+1 615-876-1700","last_updated":"2023-05-28 21:21"},"geometry":{"type":"Point","coordinates":[-86.832621,36.219404]}},{"type":"Feature","properties":{"church_name":"Church of Christ at Lawrence Avenue","latitude":"36.1289605","longitude":"-86.78362690","website":"http://lawrenceavehere4u.com/missions.html","GeoJSON_export_address":"904 Lawrence Ave, Nashville, TN 37204, USA","phone_number":"+1 615-292-7181","last_updated":"2023-05-28 21:21"},"geometry":{"type":"Point","coordinates":[-86.783627,36.12896]}},{"type":"Feature","properties":{"church_name":"Church of Christ at Trinity Lane","latitude":"36.2053425","longitude":"-86.75732880","website":"http://www.trinitylane.org/","GeoJSON_export_address":"501 E Trinity Ln, Nashville, TN 37207, USA","phone_number":"+1 615-228-0522","last_updated":"2023-05-28 21:21"},"geometry":{"type":"Point","coordinates":[-86.757329,36.205343]}},{"type":"Feature","properties":{"church_name":"Church of Christ South Town","latitude":"36.0925432","longitude":"-86.65263360","GeoJSON_export_address":"2131 Murfreesboro Pike # L1, Nashville, TN 37217, USA","phone_number":"+1 615-915-2994","last_updated":"2023-05-28 21:21"},"geometry":{"type":"Point","coordinates":[-86.652634,36.092543]}},{"type":"Feature","properties":{"church_name":"Church Of God","latitude":"36.1704894","longitude":"-86.80008690","GeoJSON_export_address":"1212 Meharry Blvd, Nashville, TN 37208, USA","phone_number":"+1 615-329-0282","last_updated":"2023-05-28 21:21"},"geometry":{"type":"Point","coordinates":[-86.800087,36.170489]}},{"type":"Feature","properties":{"church_name":"Church of Grace Village","latitude":"36.0326828","longitude":"-86.74307420","website":"http://www.thechurchofgracevillage.com/","GeoJSON_export_address":"5866 Edmondson Pike, Nashville, TN 37211, USA","Affiliations":"Presbyterian Church in America (PCA)","phone_number":"+1 615-810-9845","last_updated":"2023-05-28 21:21"},"geometry":{"type":"Point","coordinates":[-86.743074,36.032683]}},{"type":"Feature","properties":{"church_name":"Church Of Jesus Christ Of LDS","latitude":"36.2039300","longitude":"-86.72952900","website":"https://local.churchofjesuschrist.org/en/us/tn/nashville/1240-mcgavock-pike?utm_source=Google&cid=yext_us_tn_60&y_source=1_MTQ1MTIxNDQtNzE1LWxvY2F0aW9uLndlYnNpdGU%3D","GeoJSON_export_address":"1240 McGavock Pk, Nashville, TN 37216, USA","phone_number":"+1 931-627-3993","last_updated":"2023-05-28 21:21"},"geometry":{"type":"Point","coordinates":[-86.729529,36.20393]}},{"type":"Feature","properties":{"church_name":"Church of the Advent Episcopal","latitude":"36.0447550","longitude":"-86.78264290","website":"https://churchoftheadventepiscopal.org/","GeoJSON_export_address":"5501 Franklin Pike, Nashville, TN 37220, USA","phone_number":"+1 615-373-5630","last_updated":"2023-05-28 21:21"},"geometry":{"type":"Point","coordinates":[-86.782643,36.044755]}},{"type":"Feature","properties":{"church_name":"Church of the City - Downtown","latitude":"36.1542756","longitude":"-86.77322850","website":"http://churchofthecity.com/downtown","GeoJSON_export_address":"601 4th Ave S, Nashville, TN 37210, USA","last_updated":"2023-05-28 21:21"},"geometry":{"type":"Point","coordinates":[-86.773229,36.154276]}},{"type":"Feature","properties":{"church_name":"Church of the City - Franklin","latitude":"35.9146701","longitude":"-86.84753780","website":"http://www.cotc.com/","GeoJSON_export_address":"828 Murfreesboro Rd, Franklin, TN 37064, USA","phone_number":"+1 615-465-5000","last_updated":"2023-05-28 21:21"},"geometry":{"type":"Point","coordinates":[-86.847538,35.91467]}},{"type":"Feature","properties":{"church_name":"Church of the Epiphany","latitude":"36.2065057","longitude":"-86.32500720","website":"http://www.epiphanytn.com/","GeoJSON_export_address":"1500 Hickory Ridge Rd, Lebanon, TN 37087, USA","phone_number":"+1 615-444-7336","last_updated":"2023-05-28 21:21"},"geometry":{"type":"Point","coordinates":[-86.325007,36.206506]}},{"type":"Feature","properties":{"church_name":"Church of the Good Shepherd","latitude":"36.0625857","longitude":"-86.94079930","website":"http://goodshepherdnashville.org/","GeoJSON_export_address":"7501 Old Harding Pike, Nashville, TN 37221, USA","last_updated":"2023-05-28 21:21"},"geometry":{"type":"Point","coordinates":[-86.940799,36.062586]}},{"type":"Feature","properties":{"church_name":"Church of the Holy Spirit","latitude":"36.0515370","longitude":"-86.71551200","website":"https://sungshin.us/","GeoJSON_export_address":"5325 Nolensville Pk, Nashville, TN 37211, USA","phone_number":"+1 615-333-9979","last_updated":"2023-05-28 21:21"},"geometry":{"type":"Point","coordinates":[-86.715512,36.051537]}},{"type":"Feature","properties":{"church_name":"Church of the Holy Trinity","latitude":"36.1528470","longitude":"-86.77551080","website":"http://chtnashville.com/","GeoJSON_export_address":"615 6th Ave S, Nashville, TN 37203, USA","phone_number":"+1 615-256-6359","last_updated":"2023-05-28 21:21"},"geometry":{"type":"Point","coordinates":[-86.775511,36.152847]}},{"type":"Feature","properties":{"church_name":"Church of the Holy Trinity Episcopal","latitude":"36.1528470","longitude":"-86.77551080","website":"http://chtnashville.com/","GeoJSON_export_address":"615 6th Ave S, Nashville, TN 37203, USA","phone_number":"+1 615-256-6359","last_updated":"2023-05-28 21:21"},"geometry":{"type":"Point","coordinates":[-86.775511,36.152847]}},{"type":"Feature","properties":{"church_name":"Church of the Living God","latitude":"36.1456050","longitude":"-86.84913320","website":"https://www.thelivingwordcogic.com/","GeoJSON_export_address":"5100 Wyoming Ave, Nashville, TN 37209, USA","phone_number":"+1 615-297-7437","last_updated":"2023-05-28 21:21"},"geometry":{"type":"Point","coordinates":[-86.849133,36.145605]}},{"type":"Feature","properties":{"church_name":"Church of the Living Water","latitude":"36.3046340","longitude":"-86.71917290","website":"http://www.clwnashville.org/","GeoJSON_export_address":"731 Dickerson Rd, Goodlettsville, TN 37072, USA","phone_number":"+1 615-948-2679","last_updated":"2023-05-28 21:21"},"geometry":{"type":"Point","coordinates":[-86.719173,36.304634]}},{"type":"Feature","properties":{"church_name":"Church of the Messiah","latitude":"36.1492740","longitude":"-86.76336060","website":"http://cotmnashville.org/","GeoJSON_export_address":"88 Lafayette St, Nashville, TN 37210, USA","phone_number":"+1 615-255-3713","last_updated":"2023-05-28 21:21"},"geometry":{"type":"Point","coordinates":[-86.763361,36.149274]}},{"type":"Feature","properties":{"church_name":"Church Of The Redeemer","latitude":"36.1046182","longitude":"-86.77938750","website":"https://www.redeemer-nashville.net/","GeoJSON_export_address":"920 Caldwell Ln, Nashville, TN 37204, USA","phone_number":"+1 615-383-9888","last_updated":"2023-05-28 21:21"},"geometry":{"type":"Point","coordinates":[-86.779387,36.104618]}},{"type":"Feature","properties":{"church_name":"Church Women United in Nashville","latitude":"36.1900780","longitude":"-86.76488920","website":"https://unitechurchnashville.com/","GeoJSON_export_address":"1101 Stainback Ave, Nashville, TN 37207, USA","last_updated":"2023-05-28 21:21"},"geometry":{"type":"Point","coordinates":[-86.764889,36.190078]}},{"type":"Feature","properties":{"church_name":"Church-Jesus Christ Lds","latitude":"36.0983756","longitude":"-86.82107590","website":"https://local.churchofjesuschrist.org/en/us/tn/nashville/4304-hillsboro-pike?utm_source=Google&cid=yext_us_tn_68&y_source=1_MTQ1MTIzMDgtNzE1LWxvY2F0aW9uLndlYnNpdGU%3D","GeoJSON_export_address":"4304 Hillsboro Pike, Nashville, TN 37215, USA","phone_number":"+1 615-516-5957","last_updated":"2023-05-28 21:21"},"geometry":{"type":"Point","coordinates":[-86.821076,36.098376]}},{"type":"Feature","properties":{"church_name":"Church-Living God Pillar-Grnd","latitude":"36.1456050","longitude":"-86.84913320","website":"https://www.thelivingwordcogic.com/","GeoJSON_export_address":"5100 Wyoming Ave, Nashville, TN 37209, USA","phone_number":"+1 615-297-7437","last_updated":"2023-05-28 21:21"},"geometry":{"type":"Point","coordinates":[-86.849133,36.145605]}},{"type":"Feature","properties":{"church_name":"CitiPoint Church Nashville","latitude":"36.0270165","longitude":"-86.70838310","website":"https://citipointechurch.com/citipointe-locations/nashville/","GeoJSON_export_address":"7533 Lords Chapel Dr, Nashville, TN 37211, USA","phone_number":"+1 615-331-0202","last_updated":"2023-05-28 21:21"},"geometry":{"type":"Point","coordinates":[-86.708383,36.027017]}},{"type":"Feature","properties":{"church_name":"City Church of East Nashville","latitude":"36.1752649","longitude":"-86.75787510","website":"http://www.ccen.org/","GeoJSON_export_address":"805 Woodland St #330, Nashville, TN 37206, USA","Affiliations":"Presbyterian Church in America (PCA)","phone_number":"+1 615-307-0176","last_updated":"2023-05-28 21:21"},"geometry":{"type":"Point","coordinates":[-86.757875,36.175265]}},{"type":"Feature","properties":{"church_name":"City Road Chapel United Methodist Church","latitude":"36.2557649","longitude":"-86.71423940","website":"http://cityroadchapel.org/","GeoJSON_export_address":"701 Gallatin Pike S, Madison, TN 37115, USA","Affiliations":"United Methodist (UMC)","phone_number":"+1 615-868-1673","last_updated":"2023-05-28 21:21"},"geometry":{"type":"Point","coordinates":[-86.714239,36.255765]}},{"type":"Feature","properties":{"church_name":"Clark Memorial United Methodist Church","latitude":"36.1694213","longitude":"-86.79994130","website":"http://www.clarkumcnashville.org/","GeoJSON_export_address":"1014 14th Ave N, Nashville, TN 37208, USA","Affiliations":"United Methodist (UMC)","phone_number":"+1 615-329-4464","last_updated":"2023-05-28 21:21"},"geometry":{"type":"Point","coordinates":[-86.799941,36.169421]}},{"type":"Feature","properties":{"church_name":"Clarksville Highway Church of Christ","latitude":"36.3501442","longitude":"-86.93954190","website":"http://www.clarksvillehwychurch.com/","GeoJSON_export_address":"5444 US-41 ALT, Joelton, TN 37080, USA","last_updated":"2023-05-28 21:21"},"geometry":{"type":"Point","coordinates":[-86.939542,36.350144]}},{"type":"Feature","properties":{"church_name":"Clearview Baptist Church","latitude":"35.9667571","longitude":"-86.84039720","website":"https://www.clearview.org/","GeoJSON_export_address":"537 Franklin Rd Building A, Franklin, TN 37069, USA","phone_number":"+1 615-794-5488","last_updated":"2023-05-28 21:21"},"geometry":{"type":"Point","coordinates":[-86.840397,35.966757]}},{"type":"Feature","properties":{"church_name":"Cleveland Street Baptist Church","latitude":"36.1858868","longitude":"-86.76143680","website":"https://www.clevelandstreetbaptistchurch.org/","GeoJSON_export_address":"608 Cleveland St, Nashville, TN 37207, USA","phone_number":"+1 615-227-1149","last_updated":"2023-05-28 21:21"},"geometry":{"type":"Point","coordinates":[-86.761437,36.185887]}},{"type":"Feature","properties":{"church_name":"Cofers Chapel Free Will Baptist","latitude":"36.1059366","longitude":"-86.77369230","website":"http://www.coferschapel.org/","GeoJSON_export_address":"3915 Franklin Pike, Nashville, TN 37204, USA","phone_number":"+1 615-298-9288","last_updated":"2023-05-28 21:21"},"geometry":{"type":"Point","coordinates":[-86.773692,36.105937]}},{"type":"Feature","properties":{"church_name":"Community Baptist Church","latitude":"36.2647344","longitude":"-86.75777740","website":"http://www.cbcnash.org/","GeoJSON_export_address":"3838 Dickerson Pike, Nashville, TN 37207, USA","phone_number":"+1 615-612-3446","last_updated":"2023-05-28 21:21"},"geometry":{"type":"Point","coordinates":[-86.757777,36.264734]}},{"type":"Feature","properties":{"church_name":"Community Bible Church","latitude":"36.0215797","longitude":"-86.74382020","website":"http://cbcnashville.org/","GeoJSON_export_address":"6005 Edmondson Pike, Nashville, TN 37211, USA","phone_number":"+1 615-833-9148","last_updated":"2023-05-28 21:21"},"geometry":{"type":"Point","coordinates":[-86.74382,36.02158]}},{"type":"Feature","properties":{"church_name":"Community Christian Church","latitude":"36.1857213","longitude":"-86.76513120","website":"http://cccdisciples.com/","GeoJSON_export_address":"828 Lischey Ave, Nashville, TN 37207, USA","phone_number":"+1 615-647-7575","last_updated":"2023-05-28 21:21"},"geometry":{"type":"Point","coordinates":[-86.765131,36.185721]}},{"type":"Feature","properties":{"church_name":"Concord Church of the Nazarene","latitude":"35.9940667","longitude":"-86.69517520","website":"http://www.concordnaz.com/","GeoJSON_export_address":"9826 Concord Rd, Brentwood, TN 37027, USA","phone_number":"+1 615-776-3990","last_updated":"2023-05-28 21:21"},"geometry":{"type":"Point","coordinates":[-86.695175,35.994067]}},{"type":"Feature","properties":{"church_name":"Concord Road Church Of Christ","latitude":"35.9952354","longitude":"-86.78314200","website":"https://concordroad.org/","GeoJSON_export_address":"8221 Concord Rd, Brentwood, TN 37027, USA","phone_number":"+1 615-373-4353","last_updated":"2023-05-28 21:21"},"geometry":{"type":"Point","coordinates":[-86.783142,35.995235]}},{"type":"Feature","properties":{"church_name":"Concord-Grandview Baptist Church","latitude":"35.9960078","longitude":"-86.68842200","GeoJSON_export_address":"6820 Nolensville Pk, Brentwood, TN 37027, USA","last_updated":"2023-05-28 21:21"},"geometry":{"type":"Point","coordinates":[-86.688422,35.996008]}},{"type":"Feature","properties":{"church_name":"Concordia Lutheran Church","latitude":"36.1378403","longitude":"-86.82355230","website":"http://concordianashville.org/","GeoJSON_export_address":"3501 Central Ave, Nashville, TN 37205, USA","Affiliations":"Lutheran Church Missouri Synod","phone_number":"+1 615-292-0982","last_updated":"2023-05-28 21:21"},"geometry":{"type":"Point","coordinates":[-86.823552,36.13784]}},{"type":"Feature","properties":{"church_name":"Connect Church","latitude":"36.1400588","longitude":"-86.73746200","GeoJSON_export_address":"701 Murfreesboro Pike, Nashville, TN 37210, USA","last_updated":"2023-05-28 21:21"},"geometry":{"type":"Point","coordinates":[-86.737462,36.140059]}},{"type":"Feature","properties":{"church_name":"Connection Pointe Church","latitude":"36.0577573","longitude":"-86.74078800","website":"http://www.connectionpointe.com/","GeoJSON_export_address":"5240 Edmondson Pike, Nashville, TN 37211, USA","phone_number":"+1 615-732-5890","last_updated":"2023-05-28 21:21"},"geometry":{"type":"Point","coordinates":[-86.740788,36.057757]}},{"type":"Feature","properties":{"church_name":"Connection United Methodist Church","latitude":"36.1689074","longitude":"-86.65883340","website":"http://www.connectionumc.org/","GeoJSON_export_address":"2846 Lebanon Pike, Nashville, TN 37214, USA","Affiliations":"United Methodist (UMC)","phone_number":"+1 615-883-2321","last_updated":"2023-05-28 21:21"},"geometry":{"type":"Point","coordinates":[-86.658833,36.168907]}},{"type":"Feature","properties":{"church_name":"Connell Memorial United Methodist Church","latitude":"36.3247781","longitude":"-86.71031750","website":"http://www.connellumc.org/","GeoJSON_export_address":"113 Church St, Goodlettsville, TN 37072, USA","Affiliations":"United Methodist (UMC)","phone_number":"+1 615-859-5915","last_updated":"2023-05-28 21:21"},"geometry":{"type":"Point","coordinates":[-86.710318,36.324778]}},{"type":"Feature","properties":{"church_name":"Corinthian Baptist Church","latitude":"36.1600980","longitude":"-86.82561030","GeoJSON_export_address":"819 33rd Ave N, Nashville, TN 37209, USA","phone_number":"+1 615-977-6855","last_updated":"2023-05-28 21:21"},"geometry":{"type":"Point","coordinates":[-86.82561,36.160098]}},{"type":"Feature","properties":{"church_name":"Corinthian Missionary Baptist Church","latitude":"36.1600980","longitude":"-86.82561030","GeoJSON_export_address":"819 33rd Ave N, Nashville, TN 37209, USA","phone_number":"+1 615-977-6855","last_updated":"2023-05-28 21:21"},"geometry":{"type":"Point","coordinates":[-86.82561,36.160098]}},{"type":"Feature","properties":{"church_name":"Cornerstone Nashville","latitude":"36.2656645","longitude":"-86.73367510","website":"http://www.cornerstonenashville.org/","GeoJSON_export_address":"726 W Old Hickory Blvd, Madison, TN 37115, USA","phone_number":"+1 615-865-6655","last_updated":"2023-05-28 21:21"},"geometry":{"type":"Point","coordinates":[-86.733675,36.265664]}},{"type":"Feature","properties":{"church_name":"Cornerstone Presbyterian Church (Franklin, TN)","latitude":"35.9237606","longitude":"-86.86820100","website":"http://cornerstonepresfranklin.org/","GeoJSON_export_address":"136 3rd Ave S, Franklin, TN 37064, USA","phone_number":"+1 615-618-4707","last_updated":"2023-05-28 21:22"},"geometry":{"type":"Point","coordinates":[-86.868201,35.923761]}},{"type":"Feature","properties":{"church_name":"Covenant Baptist Church","latitude":"36.0719523","longitude":"-87.00602130","website":"http://www.covenantbaptistbellevue.org/","GeoJSON_export_address":"8201 McCrory Ln, Nashville, TN 37221, USA","phone_number":"+1 615-646-1919","last_updated":"2023-05-28 21:22"},"geometry":{"type":"Point","coordinates":[-87.006021,36.071952]}},{"type":"Feature","properties":{"church_name":"Covenant Of The Cross","latitude":"36.2559266","longitude":"-86.71864260","website":"http://www.covenantofthecross.com/","GeoJSON_export_address":"773M+R8, 752 Madison Square, Nashville, TN 37115, USA","phone_number":"+1 615-612-5040","last_updated":"2023-05-28 21:22"},"geometry":{"type":"Point","coordinates":[-86.718643,36.255927]}},{"type":"Feature","properties":{"church_name":"Covenant Presbyterian Church","latitude":"36.0928596","longitude":"-86.82524470","website":"https://www.covenantpres.com/","GeoJSON_export_address":"33 Burton Hills Blvd, Nashville, TN 37215, USA","Affiliations":"Presbyterian Church in America (PCA)","phone_number":"+1 615-383-2206","last_updated":"2023-05-28 21:22"},"geometry":{"type":"Point","coordinates":[-86.825245,36.09286]}},{"type":"Feature","properties":{"church_name":"Crieve Hall Church of Christ","latitude":"36.0761085","longitude":"-86.75863090","website":"http://crievehall.org/","GeoJSON_export_address":"4806 Trousdale Dr, Nashville, TN 37220, USA","phone_number":"+1 615-832-9658","last_updated":"2023-05-28 21:22"},"geometry":{"type":"Point","coordinates":[-86.758631,36.076108]}},{"type":"Feature","properties":{"church_name":"Crievewood Baptist Church","latitude":"36.0660425","longitude":"-86.75461430","website":"http://crievewood.com/","GeoJSON_export_address":"480 Hogan Rd, Nashville, TN 37220, USA","phone_number":"+1 615-832-5968","last_updated":"2023-05-28 21:22"},"geometry":{"type":"Point","coordinates":[-86.754614,36.066043]}},{"type":"Feature","properties":{"church_name":"Crievewood United Methodist Church","latitude":"36.0640841","longitude":"-86.74950490","website":"http://crievewoodumc.org/","GeoJSON_export_address":"451 Hogan Rd, Nashville, TN 37220, USA","Affiliations":"United Methodist (UMC)","phone_number":"+1 615-832-2897","last_updated":"2023-05-28 21:22"},"geometry":{"type":"Point","coordinates":[-86.749505,36.064084]}},{"type":"Feature","properties":{"church_name":"Cross of Life Lutheran Church Missouri","latitude":"36.1378403","longitude":"-86.82355230","website":"http://concordianashville.org/","GeoJSON_export_address":"3501 Central Ave, Nashville, TN 37205, USA","phone_number":"+1 615-292-0982","last_updated":"2023-05-28 21:21"},"geometry":{"type":"Point","coordinates":[-86.823552,36.13784]}},{"type":"Feature","properties":{"church_name":"Cross Point Church","latitude":"36.1758161","longitude":"-86.77736190","website":"http://crosspoint.tv/","GeoJSON_export_address":"299 Cowan St, Nashville, TN 37213, USA","phone_number":"+1 615-298-4422","last_updated":"2023-05-28 21:22"},"geometry":{"type":"Point","coordinates":[-86.777362,36.175816]}},{"type":"Feature","properties":{"church_name":"Cross Timbers Free Will Baptist Church","latitude":"36.0786703","longitude":"-86.93618290","website":"https://www.crosstimbersfwbc.com/","GeoJSON_export_address":"201 Cross Timbers Dr, Nashville, TN 37221, USA","phone_number":"+1 615-646-0515","last_updated":"2023-05-28 21:22"},"geometry":{"type":"Point","coordinates":[-86.936183,36.07867]}},{"type":"Feature","properties":{"church_name":"Crossland Church","latitude":"36.0484297","longitude":"-86.64512840","website":"https://www.crosslandchurch.com/","GeoJSON_export_address":"5424 Bell Forge Ln E Unit 694, Antioch, TN 37013, USA","phone_number":"+1 615-669-5805","last_updated":"2023-05-28 21:22"},"geometry":{"type":"Point","coordinates":[-86.645128,36.04843]}},{"type":"Feature","properties":{"church_name":"Crossroads Antioch","latitude":"36.0467014","longitude":"-86.66524800","website":"http://mycrchurch.tv/","GeoJSON_export_address":"1141 Bell Rd, Antioch, TN 37013, USA","phone_number":"+1 615-347-7101","last_updated":"2023-05-28 21:22"},"geometry":{"type":"Point","coordinates":[-86.665248,36.046701]}},{"type":"Feature","properties":{"church_name":"Crossway Pentecostal Church","latitude":"36.0961362","longitude":"-86.82350550","GeoJSON_export_address":"40 Burton Hills Blvd, Nashville, TN 37215, USA","phone_number":"+1 615-710-8512","last_updated":"2023-05-28 21:22"},"geometry":{"type":"Point","coordinates":[-86.823505,36.096136]}},{"type":"Feature","properties":{"church_name":"Cumberland Presbyterian Church","latitude":"36.1702363","longitude":"-86.65629030","website":"http://donelsoncpchurch.com/","GeoJSON_export_address":"2914 Lebanon Pike, Nashville, TN 37214, USA","last_updated":"2023-05-28 21:22"},"geometry":{"type":"Point","coordinates":[-86.65629,36.170236]}},{"type":"Feature","properties":{"church_name":"Dalewood Baptist Church","latitude":"36.2085942","longitude":"-86.71433060","website":"https://dalewoodchurchnashville.com/","GeoJSON_export_address":"1586 McGavock Pk, Nashville, TN 37216, USA","phone_number":"+1 615-227-7000","last_updated":"2023-05-29 16:06"},"geometry":{"type":"Point","coordinates":[-86.714331,36.208594]}},{"type":"Feature","properties":{"church_name":"Dalewood United Methodist Church","latitude":"36.2063145","longitude":"-86.71554280","website":"http://dalewoodumc.org/","GeoJSON_export_address":"2300 Ridgecrest Dr, Nashville, TN 37216, USA","Affiliations":"United Methodist (UMC)","phone_number":"+1 615-226-6316","last_updated":"2023-05-29 16:06"},"geometry":{"type":"Point","coordinates":[-86.715543,36.206314]}},{"type":"Feature","properties":{"church_name":"Disciple of Christ - Regional","latitude":"36.1995400","longitude":"-86.84631150","website":"http://tndisciples.org/","GeoJSON_export_address":"4006 Ashland City Hwy, Nashville, TN 37218, USA","phone_number":"+1 615-646-3705","last_updated":"2023-05-29 16:06"},"geometry":{"type":"Point","coordinates":[-86.846311,36.19954]}},{"type":"Feature","properties":{"church_name":"Dixon Memorial United Methodist Church","latitude":"36.1799167","longitude":"-86.80582700","GeoJSON_export_address":"1111 Buchanan St, Nashville, TN 37208, USA","Affiliations":"United Methodist (UMC)","phone_number":"+1 615-256-8611","last_updated":"2023-05-29 16:06"},"geometry":{"type":"Point","coordinates":[-86.805827,36.179917]}},{"type":"Feature","properties":{"church_name":"Donelson Christian Church","latitude":"36.1708313","longitude":"-86.66944080","website":"http://donelsonchurch.org/","GeoJSON_export_address":"2706 Old Lebanon Rd, Nashville, TN 37214, USA","phone_number":"+1 615-883-6666","last_updated":"2023-05-29 16:06"},"geometry":{"type":"Point","coordinates":[-86.669441,36.170831]}},{"type":"Feature","properties":{"church_name":"Donelson Church of Christ","latitude":"36.1708313","longitude":"-86.66944080","website":"http://donelsonchurch.org/","GeoJSON_export_address":"2706 Old Lebanon Rd, Nashville, TN 37214, USA","phone_number":"+1 615-883-6666","last_updated":"2023-05-29 16:06"},"geometry":{"type":"Point","coordinates":[-86.669441,36.170831]}},{"type":"Feature","properties":{"church_name":"Donelson Church of the Nazarene","latitude":"36.1612830","longitude":"-86.66443200","GeoJSON_export_address":"208 Donelson Pike, Nashville, TN 37214, USA","phone_number":"+1 615-889-2860","last_updated":"2023-05-29 16:06"},"geometry":{"type":"Point","coordinates":[-86.664432,36.161283]}},{"type":"Feature","properties":{"church_name":"Donelson Cumberland Presbyterian Church","latitude":"36.1702363","longitude":"-86.65629030","website":"http://donelsoncpchurch.com/","GeoJSON_export_address":"2914 Lebanon Pike, Nashville, TN 37214, USA","last_updated":"2023-05-28 21:22"},"geometry":{"type":"Point","coordinates":[-86.65629,36.170236]}},{"type":"Feature","properties":{"church_name":"Donelson Family at First Baptist Church","latitude":"36.1702645","longitude":"-86.67712290","website":"http://www.donelsonfirst.com/","GeoJSON_export_address":"2526 Lebanon Pike, Nashville, TN 37214, USA","phone_number":"+1 615-883-2339","last_updated":"2023-05-29 16:06"},"geometry":{"type":"Point","coordinates":[-86.677123,36.170265]}},{"type":"Feature","properties":{"church_name":"Donelson Free Will Baptist Church","latitude":"36.1094169","longitude":"-86.74767180","GeoJSON_export_address":"2921 Louise Dr, Nashville, TN 37211, USA","phone_number":"+1 615-832-6739","last_updated":"2023-05-29 16:06"},"geometry":{"type":"Point","coordinates":[-86.747672,36.109417]}},{"type":"Feature","properties":{"church_name":"Donelson Heights United Mthdst","latitude":"36.1748932","longitude":"-86.68231250","website":"http://www.dhumctn.org/","GeoJSON_export_address":"84 Fairway Dr, Nashville, TN 37214, USA","phone_number":"+1 615-883-6103","last_updated":"2023-05-29 16:06"},"geometry":{"type":"Point","coordinates":[-86.682312,36.174893]}},{"type":"Feature","properties":{"church_name":"Donelson View Baptist Church","latitude":"36.1602221","longitude":"-86.70227270","website":"http://donelsonviewbc.com/","GeoJSON_export_address":"2049 Lebanon Pike, Nashville, TN 37210, USA","phone_number":"+1 615-883-8754","last_updated":"2023-05-29 16:06"},"geometry":{"type":"Point","coordinates":[-86.702273,36.160222]}},{"type":"Feature","properties":{"church_name":"Downtown Presbyterian Church","latitude":"36.1629832","longitude":"-86.77976060","website":"http://www.dpchurch.com/","GeoJSON_export_address":"154 Rep. John Lewis Way N, Nashville, TN 37219, USA","phone_number":"+1 615-254-7584","last_updated":"2023-05-29 16:06"},"geometry":{"type":"Point","coordinates":[-86.779761,36.162983]}},{"type":"Feature","properties":{"church_name":"East - Nashville Jehovah's Witness Church","latitude":"36.1972514","longitude":"-86.76735390","website":"http://www.jw.org/","GeoJSON_export_address":"1400 Meridian St, Nashville, TN 37207, USA","phone_number":"+1 615-262-0469","last_updated":"2023-05-29 16:06"},"geometry":{"type":"Point","coordinates":[-86.767354,36.197251]}},{"type":"Feature","properties":{"church_name":"East End United Methodist Church","latitude":"36.1756639","longitude":"-86.74768890","website":"http://www.eastendumc.org/","GeoJSON_export_address":"1212 Holly St, Nashville, TN 37206, USA","Affiliations":"United Methodist (UMC)","phone_number":"+1 615-227-3272","last_updated":"2023-05-29 16:06"},"geometry":{"type":"Point","coordinates":[-86.747689,36.175664]}},{"type":"Feature","properties":{"church_name":"East Nashville Baptist Church","latitude":"36.1962273","longitude":"-86.73275970","GeoJSON_export_address":"2100 Scott Ave, Nashville, TN 37216, USA","phone_number":"+1 615-228-1754","last_updated":"2023-05-29 16:06"},"geometry":{"type":"Point","coordinates":[-86.73276,36.196227]}},{"type":"Feature","properties":{"church_name":"East Nashville United Pentecostal Church","latitude":"36.2313800","longitude":"-86.75177590","website":"http://www.firstapostolic.com/","GeoJSON_export_address":"265 Broadmoor Dr, Nashville, TN 37207, USA","phone_number":"+1 615-227-5436","last_updated":"2023-05-29 16:06"},"geometry":{"type":"Point","coordinates":[-86.751776,36.23138]}},{"type":"Feature","properties":{"church_name":"Eastgate Creative Christian Fellowship","latitude":"36.2172040","longitude":"-86.60346850","website":"http://eastgateccf.com/","GeoJSON_export_address":"633 Shute Ln, Old Hickory, TN 37138, USA","phone_number":"+1 615-316-5656","last_updated":"2023-05-29 16:06"},"geometry":{"type":"Point","coordinates":[-86.603469,36.217204]}},{"type":"Feature","properties":{"church_name":"Eastland Baptist Church","latitude":"36.1915880","longitude":"-86.74444000","website":"http://www.eastlandbaptistchurch.org/","GeoJSON_export_address":"1215 Gallatin Ave, Nashville, TN 37206, USA","phone_number":"+1 615-262-9424","last_updated":"2023-05-29 16:06"},"geometry":{"type":"Point","coordinates":[-86.74444,36.191588]}},{"type":"Feature","properties":{"church_name":"Eastminster Presbyterian Church","latitude":"36.1791527","longitude":"-86.74930550","website":"https://eastminsterpc.org/","GeoJSON_export_address":"211 N 11th St, Nashville, TN 37206, USA","phone_number":"+1 615-208-6328","last_updated":"2023-05-29 16:06"},"geometry":{"type":"Point","coordinates":[-86.749306,36.179153]}},{"type":"Feature","properties":{"church_name":"Eastwood Baptist Church","latitude":"36.2049359","longitude":"-86.73147370","website":"https://eastwoodtn.com/","GeoJSON_export_address":"1229 McGavock Pk, Nashville, TN 37216, USA","phone_number":"+1 615-228-7564","last_updated":"2023-05-29 16:06"},"geometry":{"type":"Point","coordinates":[-86.731474,36.204936]}},{"type":"Feature","properties":{"church_name":"Eastwood Christian Church","latitude":"36.1835654","longitude":"-86.74057990","website":"http://www.eastwoodchristianchurch.org/","GeoJSON_export_address":"1601 Eastland Ave, Nashville, TN 37206, USA","phone_number":"+1 615-227-2285","last_updated":"2023-05-29 16:06"},"geometry":{"type":"Point","coordinates":[-86.74058,36.183565]}},{"type":"Feature","properties":{"church_name":"Echo Hills Church of Christ","latitude":"36.2931107","longitude":"-86.73429460","website":"http://www.echohillschurch.org/","GeoJSON_export_address":"1106 Campbell Rd, Goodlettsville, TN 37072, USA","phone_number":"+1 615-420-7250","last_updated":"2023-05-29 16:06"},"geometry":{"type":"Point","coordinates":[-86.734295,36.293111]}},{"type":"Feature","properties":{"church_name":"Edgefield Church","latitude":"36.1725009","longitude":"-86.75946400","website":"https://www.edgefieldnashville.org/","GeoJSON_export_address":"700 Russell St, Nashville, TN 37206, USA","Affiliations":"Southern Baptist (SBC)","phone_number":"+1 615-730-7267","last_updated":"2023-05-29 16:06"},"geometry":{"type":"Point","coordinates":[-86.759464,36.172501]}},{"type":"Feature","properties":{"church_name":"Edgehill United Methodist Church","latitude":"36.1433889","longitude":"-86.79073680","website":"http://www.edgehill.org/","GeoJSON_export_address":"1502 Edgehill Ave, Nashville, TN 37212, USA","Affiliations":"United Methodist (UMC)","phone_number":"+1 615-254-7628","last_updated":"2023-05-29 16:06"},"geometry":{"type":"Point","coordinates":[-86.790737,36.143389]}},{"type":"Feature","properties":{"church_name":"El Shaddai Church","latitude":"35.9940496","longitude":"-86.69496010","website":"https://www.elshaddaicc.org/","GeoJSON_export_address":"9826 Concord Rd, Brentwood, TN 37027, USA","phone_number":"+1 615-941-8377","last_updated":"2023-05-29 16:06"},"geometry":{"type":"Point","coordinates":[-86.69496,35.99405]}},{"type":"Feature","properties":{"church_name":"Eleventh Street Church of Christ","latitude":"36.1708556","longitude":"-86.75048470","GeoJSON_export_address":"1100 Shelby Ave, Nashville, TN 37206, USA","phone_number":"+1 615-227-7658","last_updated":"2023-05-29 16:06"},"geometry":{"type":"Point","coordinates":[-86.750485,36.170856]}},{"type":"Feature","properties":{"church_name":"Emmanuel Church of Christ","latitude":"36.1744372","longitude":"-86.64830880","website":"http://www.emmanuelchurchnashville.com/","GeoJSON_export_address":"3020 Lebanon Pike, Nashville, TN 37214, USA","last_updated":"2023-05-29 16:06"},"geometry":{"type":"Point","coordinates":[-86.648309,36.174437]}},{"type":"Feature","properties":{"church_name":"Emmanuel Church of the Apostolic Faith","latitude":"36.1744372","longitude":"-86.64830880","website":"http://www.emmanuelchurchnashville.com/","GeoJSON_export_address":"3020 Lebanon Pike, Nashville, TN 37214, USA","last_updated":"2023-05-29 16:06"},"geometry":{"type":"Point","coordinates":[-86.648309,36.174437]}},{"type":"Feature","properties":{"church_name":"Emmanuel Lutheran Church","latitude":"36.1887496","longitude":"-86.63025910","website":"http://emmanuelhermitage.org/","GeoJSON_export_address":"1003 Hickory Hill Ln, Hermitage, TN 37076, USA","phone_number":"+1 615-883-7533","last_updated":"2023-05-29 16:06"},"geometry":{"type":"Point","coordinates":[-86.630259,36.18875]}},{"type":"Feature","properties":{"church_name":"Ethiopia Church","latitude":"36.0717694","longitude":"-86.72345520","GeoJSON_export_address":"4506 Nolensville Pk, Nashville, TN 37211, USA","phone_number":"+1 615-333-1695","last_updated":"2023-05-29 16:06"},"geometry":{"type":"Point","coordinates":[-86.723455,36.071769]}},{"type":"Feature","properties":{"church_name":"Ethos Church","latitude":"36.1640859","longitude":"-86.79737560","website":"http://www.ethoschurch.org/","GeoJSON_export_address":"1402 Clinton St, Nashville, TN 37203, USA","Affiliations":"Christian Churches/ Churches of Christ","last_updated":"2023-05-29 16:06"},"geometry":{"type":"Point","coordinates":[-86.797376,36.164086]}},{"type":"Feature","properties":{"church_name":"Ethos Church of Christ","latitude":"36.1640859","longitude":"-86.79737560","website":"http://www.ethoschurch.org/","GeoJSON_export_address":"1402 Clinton St, Nashville, TN 37203, USA","last_updated":"2023-05-29 16:06"},"geometry":{"type":"Point","coordinates":[-86.797376,36.164086]}},{"type":"Feature","properties":{"church_name":"Evangelical Arabic Church","latitude":"36.0633736","longitude":"-86.60940450","GeoJSON_export_address":"3334 Hamilton Church Rd, Antioch, TN 37013, USA","phone_number":"+1 615-730-6034","last_updated":"2023-05-29 16:06"},"geometry":{"type":"Point","coordinates":[-86.609404,36.063374]}},{"type":"Feature","properties":{"church_name":"Evans Hill Missionary Baptist","latitude":"36.1729175","longitude":"-86.59474290","GeoJSON_export_address":"1341 Tulip Grove Rd, Hermitage, TN 37076, USA","phone_number":"+1 615-889-0971","last_updated":"2023-05-29 16:06"},"geometry":{"type":"Point","coordinates":[-86.594743,36.172917]}},{"type":"Feature","properties":{"church_name":"Fairfield Missionary Baptist Church","latitude":"36.3001934","longitude":"-86.72098540","website":"http://www.fairfieldmbc.org/","GeoJSON_export_address":"1004 Dickerson Rd, Goodlettsville, TN 37072, USA","phone_number":"+1 615-859-7670","last_updated":"2023-05-29 16:06"},"geometry":{"type":"Point","coordinates":[-86.720985,36.300193]}},{"type":"Feature","properties":{"church_name":"Faith Apostolic Church","latitude":"36.2067529","longitude":"-86.80969620","GeoJSON_export_address":"925 W Trinity Ln, Nashville, TN 37207, USA","phone_number":"+1 615-255-6462","last_updated":"2023-05-29 16:06"},"geometry":{"type":"Point","coordinates":[-86.809696,36.206753]}},{"type":"Feature","properties":{"church_name":"Faith Christian Reformed Church","latitude":"36.0401107","longitude":"-86.73846290","website":"http://www.faithchurchnash.com/","GeoJSON_export_address":"15512 Old Hickory Blvd, Nashville, TN 37211, USA","Affiliations":"Christian Reformed (CRC)","phone_number":"+1 615-833-5977","last_updated":"2023-05-29 16:06"},"geometry":{"type":"Point","coordinates":[-86.738463,36.040111]}},{"type":"Feature","properties":{"church_name":"Faith Community Church","latitude":"36.0401107","longitude":"-86.73846290","website":"http://www.faithchurchnash.com/","GeoJSON_export_address":"15512 Old Hickory Blvd, Nashville, TN 37211, USA","phone_number":"+1 615-833-5977","last_updated":"2023-05-29 16:06"},"geometry":{"type":"Point","coordinates":[-86.738463,36.040111]}},{"type":"Feature","properties":{"church_name":"Faith Fellowship Church","latitude":"36.2143770","longitude":"-86.81785210","GeoJSON_export_address":"3801 Buena Vista Pike, Nashville, TN 37218, USA","phone_number":"+1 615-876-7679","last_updated":"2023-05-29 16:06"},"geometry":{"type":"Point","coordinates":[-86.817852,36.214377]}},{"type":"Feature","properties":{"church_name":"Faith Free Will Baptist Church","latitude":"36.1094169","longitude":"-86.74767180","GeoJSON_export_address":"2921 Louise Dr, Nashville, TN 37211, USA","phone_number":"+1 615-832-6739","last_updated":"2023-05-29 16:06"},"geometry":{"type":"Point","coordinates":[-86.747672,36.109417]}},{"type":"Feature","properties":{"church_name":"Faith is the Victory Church","latitude":"36.2377998","longitude":"-86.74602540","website":"https://victoriousliving.org/","GeoJSON_export_address":"3344 Walton Ln, Nashville, TN 37216, USA","phone_number":"+1 615-226-2145","last_updated":"2023-05-29 16:06"},"geometry":{"type":"Point","coordinates":[-86.746025,36.2378]}},{"type":"Feature","properties":{"church_name":"Faith Life Church","latitude":"36.0626754","longitude":"-86.93247550","website":"http://flc4u.com/","GeoJSON_export_address":"215 Bellevue Rd, Nashville, TN 37221, USA","phone_number":"+1 615-651-8060","last_updated":"2023-05-29 16:06"},"geometry":{"type":"Point","coordinates":[-86.932475,36.062675]}},{"type":"Feature","properties":{"church_name":"Faith Life Church(formerly Word of Faith)","latitude":"36.0626754","longitude":"-86.93247550","website":"http://flc4u.com/","GeoJSON_export_address":"215 Bellevue Rd, Nashville, TN 37221, USA","phone_number":"+1 615-651-8060","last_updated":"2023-05-29 16:06"},"geometry":{"type":"Point","coordinates":[-86.932475,36.062675]}},{"type":"Feature","properties":{"church_name":"Faith Methodist Church","latitude":"36.0961336","longitude":"-86.67445490","GeoJSON_export_address":"419 Ezell Pike, Nashville, TN 37217, USA","phone_number":"+1 629-333-6920","last_updated":"2023-05-29 16:06"},"geometry":{"type":"Point","coordinates":[-86.674455,36.096134]}},{"type":"Feature","properties":{"church_name":"Faith Methodist Episcopal Church","latitude":"36.0961336","longitude":"-86.67445490","GeoJSON_export_address":"419 Ezell Pike, Nashville, TN 37217, USA","phone_number":"+1 629-333-6920","last_updated":"2023-05-29 16:06"},"geometry":{"type":"Point","coordinates":[-86.674455,36.096134]}},{"type":"Feature","properties":{"church_name":"Faith Presbyterian Church","latitude":"36.3290598","longitude":"-86.69576440","website":"http://www.faithprespca.org/","GeoJSON_export_address":"372 Caldwell Dr, Goodlettsville, TN 37072, USA","phone_number":"+1 615-859-1130","last_updated":"2023-05-29 16:06"},"geometry":{"type":"Point","coordinates":[-86.695764,36.32906]}},{"type":"Feature","properties":{"church_name":"Faith United Missionary Baptist Church","latitude":"36.2214029","longitude":"-86.80546540","website":"http://www.fumb.org/","GeoJSON_export_address":"600 Revels Dr, Nashville, TN 37207, USA","phone_number":"+1 615-876-9593","last_updated":"2023-05-29 16:06"},"geometry":{"type":"Point","coordinates":[-86.805465,36.221403]}},{"type":"Feature","properties":{"church_name":"Family Mission Church","latitude":"36.1020593","longitude":"-86.73915390","website":"https://gospel-mission-church.business.site/","GeoJSON_export_address":"324 Antioch Pike, Nashville, TN 37211, USA","phone_number":"+1 615-833-7780","last_updated":"2023-05-29 16:06"},"geometry":{"type":"Point","coordinates":[-86.739154,36.102059]}},{"type":"Feature","properties":{"church_name":"Family of Faith Church","latitude":"36.1163835","longitude":"-86.74170920","website":"http://fofcnashville.org/","GeoJSON_export_address":"106 Joyner Ave, Nashville, TN 37210, USA","phone_number":"+1 615-833-8016","last_updated":"2023-05-29 16:06"},"geometry":{"type":"Point","coordinates":[-86.741709,36.116383]}},{"type":"Feature","properties":{"church_name":"Fatherland Baptist Church","latitude":"36.2756849","longitude":"-86.71558300","website":"http://fatherlandchurch.com/","GeoJSON_export_address":"200 E Campbell Rd, Madison, TN 37115, USA","phone_number":"+1 615-293-6713","last_updated":"2023-05-29 16:06"},"geometry":{"type":"Point","coordinates":[-86.715583,36.275685]}},{"type":"Feature","properties":{"church_name":"Fellowship Bible Church","latitude":"35.9942510","longitude":"-86.80910220","website":"https://fellowshipbiblechurch.org/","GeoJSON_export_address":"1210 Franklin Rd, Brentwood, TN 37027, USA","phone_number":"+1 615-777-8500","last_updated":"2023-05-29 16:06"},"geometry":{"type":"Point","coordinates":[-86.809102,35.994251]}},{"type":"Feature","properties":{"church_name":"Fellowship Nashville","latitude":"36.1261568","longitude":"-86.78675560","website":"http://fellowshipnashville.church/","GeoJSON_export_address":"2301 10th Ave S, Nashville, TN 37204, USA","phone_number":"+1 615-656-4426","last_updated":"2023-05-29 16:06"},"geometry":{"type":"Point","coordinates":[-86.786756,36.126157]}},{"type":"Feature","properties":{"church_name":"Fifteenth Avenue Baptist Church","latitude":"36.1734870","longitude":"-86.79338300","website":"http://fifteenthave.org/","GeoJSON_export_address":"1203 9th Ave N, Nashville, TN 37208, USA","phone_number":"+1 615-256-4326","last_updated":"2023-05-29 16:06"},"geometry":{"type":"Point","coordinates":[-86.793383,36.173487]}},{"type":"Feature","properties":{"church_name":"Fifteenth Avenue Church of Christ","latitude":"36.1867028","longitude":"-86.81140080","website":"https://15thave.churchofchrist.info/","GeoJSON_export_address":"2129 15th Ave N, Nashville, TN 37208, USA","phone_number":"+1 615-259-2373","last_updated":"2023-05-29 16:06"},"geometry":{"type":"Point","coordinates":[-86.811401,36.186703]}},{"type":"Feature","properties":{"church_name":"Fifth Ave Baptist Church","latitude":"36.1834462","longitude":"-86.79286230","GeoJSON_export_address":"1716 5th Ave N, Nashville, TN 37208, USA","phone_number":"+1 615-259-9917","last_updated":"2023-05-29 16:06"},"geometry":{"type":"Point","coordinates":[-86.792862,36.183446]}},{"type":"Feature","properties":{"church_name":"First Apostolic Church","latitude":"36.2313800","longitude":"-86.75177590","website":"http://www.firstapostolic.com/","GeoJSON_export_address":"265 Broadmoor Dr, Nashville, TN 37207, USA","phone_number":"+1 615-227-5436","last_updated":"2023-05-29 16:06"},"geometry":{"type":"Point","coordinates":[-86.751776,36.23138]}},{"type":"Feature","properties":{"church_name":"First Assembly of God in Madison","latitude":"36.2545974","longitude":"-86.71490290","GeoJSON_export_address":"801 Gallatin Pike S, Madison, TN 37115, USA","phone_number":"+1 615-860-7729","last_updated":"2023-05-29 16:06"},"geometry":{"type":"Point","coordinates":[-86.714903,36.254597]}},{"type":"Feature","properties":{"church_name":"First Baptist Church","latitude":"36.1590062","longitude":"-86.78057600","website":"https://nashvillefirst.org/","GeoJSON_export_address":"108 7th Ave S, Nashville, TN 37203, USA","phone_number":"+1 615-664-6000","last_updated":"2023-05-29 16:06"},"geometry":{"type":"Point","coordinates":[-86.780576,36.159006]}},{"type":"Feature","properties":{"church_name":"First Baptist Church ~ Hermitage","latitude":"36.1739634","longitude":"-86.61218690","GeoJSON_export_address":"3832 Central Pike, Hermitage, TN 37076, USA","last_updated":"2023-05-29 16:06"},"geometry":{"type":"Point","coordinates":[-86.612187,36.173963]}},{"type":"Feature","properties":{"church_name":"First Baptist Church Capitol Hill","latitude":"36.1652625","longitude":"-86.78760530","website":"http://www.firstbaptistcapitolhill.org/","GeoJSON_export_address":"625 Rosa L Parks Blvd, Nashville, TN 37203, USA","phone_number":"+1 615-255-8757","last_updated":"2023-05-29 16:06"},"geometry":{"type":"Point","coordinates":[-86.787605,36.165262]}},{"type":"Feature","properties":{"church_name":"First Baptist Church Concord","latitude":"36.1652625","longitude":"-86.78760530","website":"http://www.firstbaptistcapitolhill.org/","GeoJSON_export_address":"625 Rosa L Parks Blvd, Nashville, TN 37203, USA","phone_number":"+1 615-255-8757","last_updated":"2023-05-29 16:06"},"geometry":{"type":"Point","coordinates":[-86.787605,36.165262]}},{"type":"Feature","properties":{"church_name":"First Baptist Church Hermitage Tn","latitude":"36.1739634","longitude":"-86.61218690","GeoJSON_export_address":"3832 Central Pike, Hermitage, TN 37076, USA","last_updated":"2023-05-29 16:06"},"geometry":{"type":"Point","coordinates":[-86.612187,36.173963]}},{"type":"Feature","properties":{"church_name":"First Baptist Church Madison","latitude":"36.2551650","longitude":"-86.71474030","website":"http://www.madisonfirst.org/","GeoJSON_export_address":"719 Gallatin Pike S, Madison, TN 37115, USA","phone_number":"+1 615-868-9370","last_updated":"2023-05-29 16:06"},"geometry":{"type":"Point","coordinates":[-86.71474,36.255165]}},{"type":"Feature","properties":{"church_name":"First Baptist Church of Donelson","latitude":"36.1702645","longitude":"-86.67712290","website":"http://www.donelsonfirst.com/","GeoJSON_export_address":"2526 Lebanon Pike, Nashville, TN 37214, USA","phone_number":"+1 615-883-2339","last_updated":"2023-05-29 16:06"},"geometry":{"type":"Point","coordinates":[-86.677123,36.170265]}},{"type":"Feature","properties":{"church_name":"First Baptist Church of East Nashville","latitude":"36.1740704","longitude":"-86.76274420","website":"http://www.firstbaptistchurcheastnashville.org/","GeoJSON_export_address":"601 Main St, Nashville, TN 37206, USA","phone_number":"+1 615-254-6268","last_updated":"2023-05-29 16:06"},"geometry":{"type":"Point","coordinates":[-86.762744,36.17407]}},{"type":"Feature","properties":{"church_name":"First Baptist Church Of Hopewell","latitude":"36.2270621","longitude":"-86.63326100","GeoJSON_export_address":"4033 Lafayette Ave, Old Hickory, TN 37138, USA","phone_number":"+1 615-847-2070","last_updated":"2023-05-29 16:06"},"geometry":{"type":"Point","coordinates":[-86.633261,36.227062]}},{"type":"Feature","properties":{"church_name":"First Baptist Hendersonville","latitude":"36.3200490","longitude":"-86.56722300","website":"http://www.fbchville.com/","GeoJSON_export_address":"106 Bluegrass Commons Blvd, Hendersonville, TN 37075, USA","phone_number":"+1 615-824-6154","last_updated":"2023-05-29 16:06"},"geometry":{"type":"Point","coordinates":[-86.567223,36.320049]}},{"type":"Feature","properties":{"church_name":"First Baptist of South Inglewood","latitude":"36.1989034","longitude":"-86.72658480","website":"https://www.fbsi.net/","GeoJSON_export_address":"1515 Ann St, Nashville, TN 37216, USA","phone_number":"+1 615-262-2531","last_updated":"2023-05-29 16:06"},"geometry":{"type":"Point","coordinates":[-86.726585,36.198903]}},{"type":"Feature","properties":{"church_name":"First Bible Presbyterian Church","latitude":"36.0794081","longitude":"-86.77540060","website":"https://fpcnashville.org/","GeoJSON_export_address":"4815 Franklin Pike, Nashville, TN 37220, USA","phone_number":"+1 615-383-1815","last_updated":"2023-05-29 16:06"},"geometry":{"type":"Point","coordinates":[-86.775401,36.079408]}},{"type":"Feature","properties":{"church_name":"First Christian Church","latitude":"36.1590062","longitude":"-86.78057600","website":"https://nashvillefirst.org/","GeoJSON_export_address":"108 7th Ave S, Nashville, TN 37203, USA","phone_number":"+1 615-664-6000","last_updated":"2023-05-29 16:06"},"geometry":{"type":"Point","coordinates":[-86.780576,36.159006]}},{"type":"Feature","properties":{"church_name":"First Church of Christ Scientist","latitude":"36.1220215","longitude":"-86.80784760","website":"https://christiansciencenashville.org/","GeoJSON_export_address":"2911 Hillsboro Pike, Nashville, TN 37215, USA","phone_number":"+1 615-256-1068","last_updated":"2023-05-29 16:06"},"geometry":{"type":"Point","coordinates":[-86.807848,36.122022]}},{"type":"Feature","properties":{"church_name":"First Church of the Nazarene","latitude":"36.1714876","longitude":"-86.76368380","website":"https://nfcn.org/","GeoJSON_export_address":"510 Woodland St, Nashville, TN 37206, USA","phone_number":"+1 615-255-1289","last_updated":"2023-05-29 16:06"},"geometry":{"type":"Point","coordinates":[-86.763684,36.171488]}},{"type":"Feature","properties":{"church_name":"First Covenant Church","latitude":"36.1970349","longitude":"-86.77190530","GeoJSON_export_address":"1348 Dickerson Pike, Nashville, TN 37207, USA","last_updated":"2023-05-29 16:06"},"geometry":{"type":"Point","coordinates":[-86.771905,36.197035]}},{"type":"Feature","properties":{"church_name":"First Evangelical Lutheran Church","latitude":"36.1580091","longitude":"-86.78173480","website":"http://first-lutheran-nashville.org/","GeoJSON_export_address":"113 8th Ave S, Nashville, TN 37203, USA","phone_number":"+1 615-256-7580","last_updated":"2023-05-29 16:06"},"geometry":{"type":"Point","coordinates":[-86.781735,36.158009]}},{"type":"Feature","properties":{"church_name":"First Fellowship Missionary Baptist Church","latitude":"36.0866811","longitude":"-86.72550610","GeoJSON_export_address":"522 Paragon Mills Rd, Nashville, TN 37211, USA","phone_number":"+1 615-834-7925","last_updated":"2023-05-29 16:06"},"geometry":{"type":"Point","coordinates":[-86.725506,36.086681]}},{"type":"Feature","properties":{"church_name":"First General Baptist Church","latitude":"36.2145025","longitude":"-86.84127780","GeoJSON_export_address":"4030 Cedar Cir, Nashville, TN 37218, USA","last_updated":"2023-05-29 16:06"},"geometry":{"type":"Point","coordinates":[-86.841278,36.214503]}},{"type":"Feature","properties":{"church_name":"First Lutheran Church ELCA","latitude":"36.1580091","longitude":"-86.78173480","website":"http://first-lutheran-nashville.org/","GeoJSON_export_address":"113 8th Ave S, Nashville, TN 37203, USA","phone_number":"+1 615-256-7580","last_updated":"2023-05-29 16:06"},"geometry":{"type":"Point","coordinates":[-86.781735,36.158009]}},{"type":"Feature","properties":{"church_name":"First Presbyterian Church","latitude":"36.0794081","longitude":"-86.77540060","website":"https://fpcnashville.org/","GeoJSON_export_address":"4815 Franklin Pike, Nashville, TN 37220, USA","phone_number":"+1 615-383-1815","last_updated":"2023-05-29 16:06"},"geometry":{"type":"Point","coordinates":[-86.775401,36.079408]}},{"type":"Feature","properties":{"church_name":"First Presbyterian Church of Gallatin","latitude":"36.3874187","longitude":"-86.44865780","website":"http://www.fpcgallatin.org/","GeoJSON_export_address":"167 W Main St, Gallatin, TN 37066, USA","phone_number":"+1 615-452-3151","last_updated":"2023-05-29 16:06"},"geometry":{"type":"Point","coordinates":[-86.448658,36.387419]}},{"type":"Feature","properties":{"church_name":"First Seventh Day Adventist Church","latitude":"36.1319750","longitude":"-86.81237100","website":"http://www.nfsda.org/","GeoJSON_export_address":"2800 Blair Blvd, Nashville, TN 37212, USA","phone_number":"+1 615-297-1343","last_updated":"2023-05-29 16:06"},"geometry":{"type":"Point","coordinates":[-86.812371,36.131975]}},{"type":"Feature","properties":{"church_name":"First Street Baptist Church","latitude":"36.1743013","longitude":"-86.79294560","GeoJSON_export_address":"1212 9th Ave N, Nashville, TN 37208, USA","phone_number":"+1 615-256-1017","last_updated":"2023-05-29 16:06"},"geometry":{"type":"Point","coordinates":[-86.792946,36.174301]}},{"type":"Feature","properties":{"church_name":"First Street Missionary Baptist Church","latitude":"36.1926310","longitude":"-86.75704700","GeoJSON_export_address":"1206 Montgomery Ave, Nashville, TN 37207, USA","phone_number":"+1 615-953-3168","last_updated":"2023-05-29 16:06"},"geometry":{"type":"Point","coordinates":[-86.757047,36.192631]}},{"type":"Feature","properties":{"church_name":"First Unitarian Universalist Church of Nashville","latitude":"36.1140223","longitude":"-86.80575350","website":"https://www.firstuunash.org/","GeoJSON_export_address":"1808 Woodmont Blvd, Nashville, TN 37215, USA","phone_number":"+1 615-383-5760","last_updated":"2023-05-29 16:06"},"geometry":{"type":"Point","coordinates":[-86.805753,36.114022]}},{"type":"Feature","properties":{"church_name":"First United Pentecostal Church","latitude":"36.1123244","longitude":"-86.93187950","website":"http://www.firstchurchnashville.net/","GeoJSON_export_address":"7512 Charlotte Pike, Nashville, TN 37209, USA","phone_number":"+1 615-297-1450","last_updated":"2023-05-29 16:06"},"geometry":{"type":"Point","coordinates":[-86.931879,36.112324]}},{"type":"Feature","properties":{"church_name":"First Wesleyan Church","latitude":"36.1689146","longitude":"-86.75949660","GeoJSON_export_address":"611 Shelby Ave, Nashville, TN 37206, USA","phone_number":"+1 615-686-4786","last_updated":"2023-05-29 16:06"},"geometry":{"type":"Point","coordinates":[-86.759497,36.168915]}},{"type":"Feature","properties":{"church_name":"Flatrock Community Church","latitude":"36.1313353","longitude":"-86.77300110","website":"https://www.flatrockcc.org/","GeoJSON_export_address":"2020 Lindell Ave, Nashville, TN 37204, USA","Affiliations":"Presbyterian Church in America (PCA)","phone_number":"+1 615-840-8718","last_updated":"2023-05-29 16:06"},"geometry":{"type":"Point","coordinates":[-86.773001,36.131335]}},{"type":"Feature","properties":{"church_name":"Forest Hills Baptist Church","latitude":"36.0468763","longitude":"-86.86477860","website":"http://fhbc.org/","GeoJSON_export_address":"2101 Old Hickory Blvd, Nashville, TN 37215, USA","phone_number":"+1 615-373-8074","last_updated":"2023-05-29 16:06"},"geometry":{"type":"Point","coordinates":[-86.864779,36.046876]}},{"type":"Feature","properties":{"church_name":"Forest Hills United Methodist Church","latitude":"36.0423359","longitude":"-86.81988960","website":"http://www.foresthillsumc.org/","GeoJSON_export_address":"1250 Old Hickory Blvd, Brentwood, TN 37027, USA","Affiliations":"United Methodist (UMC)","phone_number":"+1 615-373-3131","last_updated":"2023-05-29 16:06"},"geometry":{"type":"Point","coordinates":[-86.81989,36.042336]}},{"type":"Feature","properties":{"church_name":"Fortieth Avenue Church Of Christ","latitude":"36.1561111","longitude":"-86.83416670","website":"https://www.40thavecoc.com/","GeoJSON_export_address":"616 40th Ave N, Nashville, TN 37209, USA","phone_number":"+1 615-321-3364","last_updated":"2023-05-29 16:06"},"geometry":{"type":"Point","coordinates":[-86.834167,36.156111]}},{"type":"Feature","properties":{"church_name":"Foster Avenue Church Of Christ","latitude":"36.1161553","longitude":"-86.74334890","website":"https://fosterave.churchofchrist.info/","GeoJSON_export_address":"2614 Foster Ave, Nashville, TN 37210, USA","phone_number":"+1 615-833-4422","last_updated":"2023-05-29 16:06"},"geometry":{"type":"Point","coordinates":[-86.743349,36.116155]}},{"type":"Feature","properties":{"church_name":"Fourteenth Avenue Missionary Baptist Church","latitude":"36.1801318","longitude":"-86.81756530","website":"http://www.fourteenthavembc.com/","GeoJSON_export_address":"2501 Buchanan St, Nashville, TN 37208, USA","phone_number":"+1 615-255-7167","last_updated":"2023-05-29 16:06"},"geometry":{"type":"Point","coordinates":[-86.817565,36.180132]}},{"type":"Feature","properties":{"church_name":"Friendship Community Church","latitude":"36.2178203","longitude":"-86.58187750","website":"https://achurchforyou.com/","GeoJSON_export_address":"15285 Lebanon Rd, Old Hickory, TN 37138, USA","phone_number":"+1 615-758-5358","last_updated":"2023-05-29 16:06"},"geometry":{"type":"Point","coordinates":[-86.581878,36.21782]}},{"type":"Feature","properties":{"church_name":"Friendship Pentecostal Church","latitude":"36.1656412","longitude":"-86.82557140","website":"http://www.friendshipchurchinc.org/","GeoJSON_export_address":"1109 32nd Ave N, Nashville, TN 37209, USA","phone_number":"+1 615-329-9363","last_updated":"2023-05-29 16:07"},"geometry":{"type":"Point","coordinates":[-86.825571,36.165641]}},{"type":"Feature","properties":{"church_name":"Full Gospel Church of Jesus Christ","latitude":"36.1394332","longitude":"-86.82705590","website":"http://thegospelchurch.com/","GeoJSON_export_address":"101 Bowling Ave, Nashville, TN 37205, USA","last_updated":"2023-05-29 16:07"},"geometry":{"type":"Point","coordinates":[-86.827056,36.139433]}},{"type":"Feature","properties":{"church_name":"Full Gospel Mission Church","latitude":"36.1020593","longitude":"-86.73915390","website":"https://gospel-mission-church.business.site/","GeoJSON_export_address":"324 Antioch Pike, Nashville, TN 37211, USA","phone_number":"+1 615-833-7780","last_updated":"2023-05-29 16:06"},"geometry":{"type":"Point","coordinates":[-86.739154,36.102059]}},{"type":"Feature","properties":{"church_name":"Gallatin Road Baptist Church","latitude":"36.2328321","longitude":"-86.72527530","GeoJSON_export_address":"4809 Gallatin Pike, Nashville, TN 37216, USA","last_updated":"2023-05-29 16:07"},"geometry":{"type":"Point","coordinates":[-86.725275,36.232832]}},{"type":"Feature","properties":{"church_name":"Gateway Baptist Church","latitude":"36.1557789","longitude":"-86.68014320","website":"https://gatewaymbchurch.com/","GeoJSON_export_address":"2514 Lakeland Dr, Nashville, TN 37214, USA","last_updated":"2023-05-29 16:07"},"geometry":{"type":"Point","coordinates":[-86.680143,36.155779]}},{"type":"Feature","properties":{"church_name":"Generations Changers","latitude":"36.1623926","longitude":"-86.64920130","website":"http://gcchurch.tv/","GeoJSON_export_address":"224 Stewarts Ferry Pike, Nashville, TN 37214, USA","phone_number":"+1 615-883-6506","last_updated":"2023-05-29 16:07"},"geometry":{"type":"Point","coordinates":[-86.649201,36.162393]}},{"type":"Feature","properties":{"church_name":"Gethsemane Baptist Church","latitude":"36.2444874","longitude":"-86.77968520","website":"http://www.gbaptist.com/","GeoJSON_export_address":"3409 Brick Church Pike, Nashville, TN 37207, USA","phone_number":"+1 615-262-9132","last_updated":"2023-05-29 16:07"},"geometry":{"type":"Point","coordinates":[-86.779685,36.244487]}},{"type":"Feature","properties":{"church_name":"Glencliff Presbyterian Church","latitude":"36.1204726","longitude":"-86.71708690","GeoJSON_export_address":"416 E Thompson Ln, Nashville, TN 37211, USA","phone_number":"+1 615-361-7858","last_updated":"2023-05-29 16:07"},"geometry":{"type":"Point","coordinates":[-86.717087,36.120473]}},{"type":"Feature","properties":{"church_name":"Glencliff United Methodist Church","latitude":"36.1114185","longitude":"-86.72110240","website":"https://glencliff.umcchurches.org/","GeoJSON_export_address":"2901 Glencliff Rd, Nashville, TN 37211, USA","Affiliations":"United Methodist (UMC)","phone_number":"+1 615-833-5010","last_updated":"2023-05-29 16:07"},"geometry":{"type":"Point","coordinates":[-86.721102,36.111418]}},{"type":"Feature","properties":{"church_name":"Glendale Baptist Church","latitude":"36.0921630","longitude":"-86.79364830","website":"http://www.glendalebaptist.org/","GeoJSON_export_address":"1021 Glendale Ln, Nashville, TN 37204, USA","phone_number":"+1 615-269-0926","last_updated":"2023-05-29 16:07"},"geometry":{"type":"Point","coordinates":[-86.793648,36.092163]}},{"type":"Feature","properties":{"church_name":"Glendale United Methodist Church","latitude":"36.0927747","longitude":"-86.78785640","website":"http://glendaleumc.org/","GeoJSON_export_address":"900 Glendale Ln, Nashville, TN 37204, USA","Affiliations":"United Methodist (UMC)","phone_number":"+1 615-297-6233","last_updated":"2023-05-29 16:07"},"geometry":{"type":"Point","coordinates":[-86.787856,36.092775]}},{"type":"Feature","properties":{"church_name":"Good Samaritan Missionary Baptist Church","latitude":"36.1427475","longitude":"-86.76832430","GeoJSON_export_address":"509 Houston St, Nashville, TN 37203, USA","phone_number":"+1 615-256-2581","last_updated":"2023-05-29 16:07"},"geometry":{"type":"Point","coordinates":[-86.768324,36.142747]}},{"type":"Feature","properties":{"church_name":"Good Shepherd Presbyterian Church","latitude":"36.0625857","longitude":"-86.94079930","website":"http://goodshepherdnashville.org/","GeoJSON_export_address":"7501 Old Harding Pike, Nashville, TN 37221, USA","last_updated":"2023-05-28 21:21"},"geometry":{"type":"Point","coordinates":[-86.940799,36.062586]}},{"type":"Feature","properties":{"church_name":"Goodlettsville Church of Nazarene","latitude":"36.3359932","longitude":"-86.70560070","website":"http://www.goodnaz.org/","GeoJSON_export_address":"400 Loretta Dr, Goodlettsville, TN 37072, USA","phone_number":"+1 615-859-2555","last_updated":"2023-05-29 16:07"},"geometry":{"type":"Point","coordinates":[-86.705601,36.335993]}},{"type":"Feature","properties":{"church_name":"Goodlettsville Cumberland Presbyterian Church","latitude":"36.3192415","longitude":"-86.71248020","website":"http://goodlettsville.church/","GeoJSON_export_address":"226 S Main St, Goodlettsville, TN 37072, USA","phone_number":"+1 615-859-5888","last_updated":"2023-05-29 16:07"},"geometry":{"type":"Point","coordinates":[-86.71248,36.319241]}},{"type":"Feature","properties":{"church_name":"Goodlettsville Pentecostal Church","latitude":"36.3072222","longitude":"-86.72305560","website":"http://www.gvillepc.com/","GeoJSON_export_address":"733 Old Dickerson Pike, Goodlettsville, TN 37072, USA","phone_number":"+1 615-859-9450","last_updated":"2023-05-29 16:07"},"geometry":{"type":"Point","coordinates":[-86.723056,36.307222]}},{"type":"Feature","properties":{"church_name":"Goodlettsville Southern Methodist Church","latitude":"36.3047400","longitude":"-86.71181200","GeoJSON_export_address":"300 Draper Cir, Goodlettsville, TN 37072, USA","Affiliations":"United Methodist (UMC)","phone_number":"+1 615-859-1785","last_updated":"2023-05-29 16:07"},"geometry":{"type":"Point","coordinates":[-86.711812,36.30474]}},{"type":"Feature","properties":{"church_name":"Gordon Memorial United Methodist Church","latitude":"36.1625170","longitude":"-86.81058320","website":"http://www.gordonmemorialumc.org/","GeoJSON_export_address":"2334 Herman St, Nashville, TN 37208, USA","Affiliations":"United Methodist (UMC)","phone_number":"+1 615-329-2779","last_updated":"2023-05-29 16:07"},"geometry":{"type":"Point","coordinates":[-86.810583,36.162517]}},{"type":"Feature","properties":{"church_name":"Grace Apostolic Church Inc.","latitude":"36.1901041","longitude":"-86.76427710","website":"http://www.gracechurchinc.org/","GeoJSON_export_address":"1100 Lischey Ave, Nashville, TN 37207, USA","phone_number":"+1 615-227-1012","last_updated":"2023-05-29 16:07"},"geometry":{"type":"Point","coordinates":[-86.764277,36.190104]}},{"type":"Feature","properties":{"church_name":"Grace Baptist Church","latitude":"36.2799580","longitude":"-86.78265630","website":"http://www.gbcnashville.com/","GeoJSON_export_address":"1510 Old Hickory Blvd, Nashville, TN 37207, USA","phone_number":"+1 615-865-6262","last_updated":"2023-05-29 16:07"},"geometry":{"type":"Point","coordinates":[-86.782656,36.279958]}},{"type":"Feature","properties":{"church_name":"Grace Chapel","latitude":"35.8971740","longitude":"-86.95836700","website":"http://www.gracechapel.net/","GeoJSON_export_address":"3279 Southall Rd, Franklin, TN 37064, USA","phone_number":"+1 615-591-5091","last_updated":"2023-05-29 16:07"},"geometry":{"type":"Point","coordinates":[-86.958367,35.897174]}},{"type":"Feature","properties":{"church_name":"Grace Church of the Nazarene","latitude":"36.2284877","longitude":"-86.69606850","website":"http://www.welcometograce.church/","GeoJSON_export_address":"2620 Pennington Bend Rd, Nashville, TN 37214, USA","phone_number":"+1 615-889-7462","last_updated":"2023-05-29 16:07"},"geometry":{"type":"Point","coordinates":[-86.696068,36.228488]}},{"type":"Feature","properties":{"church_name":"Grace Community Church","latitude":"36.0399136","longitude":"-86.81752310","website":"http://www.gccnashville.org/","GeoJSON_export_address":"5711 Granny White Pike, Brentwood, TN 37027, USA","phone_number":"+1 615-377-8997","last_updated":"2023-05-29 16:07"},"geometry":{"type":"Point","coordinates":[-86.817523,36.039914]}},{"type":"Feature","properties":{"church_name":"Grace Evangelistic Ministries","latitude":"36.0375644","longitude":"-86.80736220","website":"http://gemworldwide.org/","GeoJSON_export_address":"100 Winners Cir N, Brentwood, TN 37027, USA","phone_number":"+1 615-373-2988","last_updated":"2023-05-29 16:07"},"geometry":{"type":"Point","coordinates":[-86.807362,36.037564]}},{"type":"Feature","properties":{"church_name":"Grace Interdenominational Church","latitude":"36.1313353","longitude":"-86.77300110","website":"https://www.gracepointe.net/","GeoJSON_export_address":"2020 Lindell Ave, Nashville, TN 37204, USA","last_updated":"2023-05-29 16:07"},"geometry":{"type":"Point","coordinates":[-86.773001,36.131335]}},{"type":"Feature","properties":{"church_name":"Grace Place - Nashville Church","latitude":"36.1732454","longitude":"-86.57544950","website":"http://www.nashvillechurch.com/","GeoJSON_export_address":"4316 Central Pike, Hermitage, TN 37076, USA","phone_number":"+1 615-883-1826","last_updated":"2023-05-29 16:07"},"geometry":{"type":"Point","coordinates":[-86.57545,36.173245]}},{"type":"Feature","properties":{"church_name":"Gracepointe Church","latitude":"36.1313353","longitude":"-86.77300110","website":"https://www.gracepointe.net/","GeoJSON_export_address":"2020 Lindell Ave, Nashville, TN 37204, USA","last_updated":"2023-05-29 16:07"},"geometry":{"type":"Point","coordinates":[-86.773001,36.131335]}},{"type":"Feature","properties":{"church_name":"Grandview Church Of Christ","latitude":"36.1169784","longitude":"-86.74850690","website":"http://iglesiadecristonashville.org/","GeoJSON_export_address":"2607 Nolensville Pk, Nashville, TN 37211, USA","phone_number":"+1 615-244-0608","last_updated":"2023-05-29 16:07"},"geometry":{"type":"Point","coordinates":[-86.748507,36.116978]}},{"type":"Feature","properties":{"church_name":"Granny White Church of Christ","latitude":"36.1073977","longitude":"-86.79501900","website":"http://cocgreenhills.org/","GeoJSON_export_address":"3805 Granny White Pike, Nashville, TN 37204, USA","phone_number":"+1 615-292-6679","last_updated":"2023-05-29 16:07"},"geometry":{"type":"Point","coordinates":[-86.795019,36.107398]}},{"type":"Feature","properties":{"church_name":"Greater Bethel AME","latitude":"36.1478279","longitude":"-86.78656030","GeoJSON_export_address":"1300 South St, Nashville, TN 37212, USA","phone_number":"+1 615-256-1509","last_updated":"2023-05-29 16:07"},