{"type":"FeatureCollection","features":[{"type":"Feature","properties":{"church_name":"8th Street Missionary Baptist Church","AirtableRecord":"recSHQCDCXASF9vG9","place_id":"ChIJy_fWDP1mZIgRF5Z9TCemv54","name":"Eighth Street Baptist Church","website":"http://esmbchurch.org/","latitude":"36.1753155","longitude":"-86.79005650","address":"1223 6th Ave N, Nashville, TN 37208, USA","phone_number":"+1 615-256-6937","last_updated":"2023-05-28 21:20"},"geometry":{"type":"Point","coordinates":[-86.790057,36.175316]}},{"type":"Feature","properties":{"church_name":"49th Avenue Church of Christ","AirtableRecord":"recdTbaYPIM5iq1Wg","place_id":"ChIJi3S_JoJoZIgRqhao5CAABhI","name":"Shelby Avenue Church of Christ","latitude":"36.1698537","longitude":"-86.74011310","address":"Nashville, TN 37206, USA","phone_number":"+1 615-290-3968","last_updated":"2023-05-28 21:20"},"geometry":{"type":"Point","coordinates":[-86.740113,36.169854]}},{"type":"Feature","properties":{"church_name":"A.M.E. African Methodist Episcopal Church","AirtableRecord":"recJTX3waWbKmcKiM","place_id":"ChIJkYGRCtxmZIgRGY8FNoIGOvk","name":"Lee Chapel African Methodist Episcopal Church","website":"http://www.leechapel.org/","latitude":"36.1706865","longitude":"-86.80687600","address":"1200 Dr DB Todd Jr Blvd, Nashville, TN 37208, USA","phone_number":"+1 615-320-0260","last_updated":"2023-05-28 21:20"},"geometry":{"type":"Point","coordinates":[-86.806876,36.170687]}},{"type":"Feature","properties":{"church_name":"A.M.E. Thirteenth Episcopal District","AirtableRecord":"recOSakusZ3UMpHBI","place_id":"ChIJv-sKjGBmZIgRDW1tQ_slv3k","name":"Bishop 13th Episcopal District","website":"https://www.13thdistrictame.org/","latitude":"36.1538482","longitude":"-86.77918380","address":"500 8th Ave S, Nashville, TN 37203, USA","phone_number":"+1 615-242-2496","last_updated":"2023-05-28 21:20"},"geometry":{"type":"Point","coordinates":[-86.779184,36.153848]}},{"type":"Feature","properties":{"church_name":"Abundant Life Church","AirtableRecord":"recEzjPeUnadehixu","place_id":"ChIJjzjlBAloZIgRPDNek3KuIT0","name":"Abundant Life Church of God","latitude":"36.2047572","longitude":"-86.73870340","address":"Nashville, TN 37216, USA","last_updated":"2023-05-28 21:20"},"geometry":{"type":"Point","coordinates":[-86.738703,36.204757]}},{"type":"Feature","properties":{"church_name":"Abundant Life Living Word Church","AirtableRecord":"recgpCs2WXCZNI2qo","place_id":"ChIJ17on0TNCZIgRndi5dXDL-PI","name":"Abundant Life Living Word","website":"http://www.allwordchurch.org/","latitude":"36.2553580","longitude":"-86.67416500","address":"1150 Cheyenne Blvd, Madison, TN 37115, USA","phone_number":"+1 615-712-9382","last_updated":"2023-05-28 21:20"},"geometry":{"type":"Point","coordinates":[-86.674165,36.255358]}},{"type":"Feature","properties":{"church_name":"Abyssinia Baptist Church","AirtableRecord":"recaMo4IrTLoSrDTY","place_id":"ChIJiRaVli1vZIgRm5WC838FyLc","name":"Abyssinia Ethiopian Restaurant","latitude":"36.1270663","longitude":"-86.71043360","address":"991 Thompson Pl, Nashville, TN 37217, USA","phone_number":"+1 615-686-5857","last_updated":"2023-05-28 21:20"},"geometry":{"type":"Point","coordinates":[-86.710434,36.127066]}},{"type":"Feature","properties":{"church_name":"Acklen Avenue Church of Christ","AirtableRecord":"rechJPSzBYlPtfoky","place_id":"ChIJY3HPDYBmZIgRNgStGhDXuSw","name":"Acklen Avenue Church of Christ","website":"http://www.acklen.org/","latitude":"36.1342989","longitude":"-86.78251860","address":"900 Acklen Ave, Nashville, TN 37203, USA","phone_number":"+1 615-292-5549","last_updated":"2023-05-28 21:20"},"geometry":{"type":"Point","coordinates":[-86.782519,36.134299]}},{"type":"Feature","properties":{"church_name":"African Methodist Episcopal Church, South Nashville District","AirtableRecord":"reccwDSt94udLrKss","place_id":"ChIJv-sKjGBmZIgRDW1tQ_slv3k","name":"Bishop 13th Episcopal District","website":"https://www.13thdistrictame.org/","latitude":"36.1538482","longitude":"-86.77918380","address":"500 8th Ave S, Nashville, TN 37203, USA","phone_number":"+1 615-242-2496","last_updated":"2023-05-28 21:20"},"geometry":{"type":"Point","coordinates":[-86.779184,36.153848]}},{"type":"Feature","properties":{"church_name":"Agape Fellowship Church","AirtableRecord":"rec6rVTp0vNMw8v8z","place_id":"ChIJ-7WUuL-JZIgROw03qWiaS8k","name":"Agape Fellowship Church","latitude":"36.1125180","longitude":"-86.92481520","address":"645 Old Hickory Blvd, Nashville, TN 37209, USA","phone_number":"+1 615-353-0007","last_updated":"2023-05-28 21:20"},"geometry":{"type":"Point","coordinates":[-86.924815,36.112518]}},{"type":"Feature","properties":{"church_name":"Alameda Christian Church","AirtableRecord":"recPIPiO0Zwauguow","place_id":"ChIJKXbEKtBmZIgRVv1PGE-bj5k","name":"Alameda Street Christian Church","latitude":"36.1667234","longitude":"-86.81444370","address":"Nashville, TN 37208, USA","last_updated":"2023-05-28 21:20"},"geometry":{"type":"Point","coordinates":[-86.814444,36.166723]}},{"type":"Feature","properties":{"church_name":"Aldersgate United Methodist Church","AirtableRecord":"recd1FsWzBT2V1QXb","place_id":"ChIJTVmVn0RoZIgRZZO1RWaYV18","name":"Aldersgate United Methodist","website":"http://aumcnashville.org/","latitude":"36.1868579","longitude":"-86.71645810","address":"512 Rosebank Ave, Nashville, TN 37206, USA","phone_number":"+1 615-226-2781","last_updated":"2023-05-28 21:20"},"geometry":{"type":"Point","coordinates":[-86.716458,36.186858]}},{"type":"Feature","properties":{"church_name":"All In One Kingdom Church","AirtableRecord":"recBdyebaAWIVnMkl","place_id":"ChIJR3A8B_VlZIgRAI6beeTL9wI","name":"All in one kindgom church","website":"https://all-in-one-kindgom-church.business.site/","latitude":"36.1130908","longitude":"-86.74355010","address":"2803c Foster Ave, Nashville, TN 37211, USA","phone_number":"+1 615-403-3792","last_updated":"2023-05-28 21:20"},"geometry":{"type":"Point","coordinates":[-86.74355,36.113091]}},{"type":"Feature","properties":{"church_name":"All Saints Southern Episcopal Church","default_website":"http://allsaints.tripod.com/","AirtableRecord":"recYDUXEiBNTLOmfZ","place_id":"ChIJU3IpAUJhZIgRmrEq3khkP4Y","name":"All Saints Southern Episcopal","latitude":"36.1507210","longitude":"-86.84197320","address":"4513 Park Ave, Nashville, TN 37209, USA","phone_number":"+1 615-269-5017","last_updated":"2023-05-28 21:20"},"geometry":{"type":"Point","coordinates":[-86.841973,36.150721]}},{"type":"Feature","properties":{"church_name":"All Souls Church","AirtableRecord":"recFl201LHjCApisp","place_id":"ChIJ15j7LMBnZIgR10o-JYFY4fE","name":"All Souls Church of Nashville","website":"http://allsoulsnashville.com/","latitude":"36.2135046","longitude":"-86.76513270","address":"2526 Dickerson Pike, Nashville, TN 37207, USA","phone_number":"+1 512-808-7442","last_updated":"2023-05-28 21:20"},"geometry":{"type":"Point","coordinates":[-86.765133,36.213505]}},{"type":"Feature","properties":{"church_name":"Alta Loma Baptist Church","AirtableRecord":"recpVwa4qyetB7yl3","place_id":"ChIJv6iCxHlDZIgRemWgHpqH144","name":"Alta Loma","latitude":"36.2941054","longitude":"-86.70610770","address":"Alta Loma, TN, USA","last_updated":"2023-05-28 21:20"},"geometry":{"type":"Point","coordinates":[-86.706108,36.294105]}},{"type":"Feature","properties":{"church_name":"AME Church Clergy Family Info","AirtableRecord":"recZEsNJ43z0uj2dW","place_id":"ChIJmUB-5HZwZIgRuL7Xcz2bCyo","name":"The AME Church Clergy Family Information Center","website":"http://amecfic.org/","latitude":"36.0155897","longitude":"-86.73835420","address":"5981 Hitching Post Ln, Nashville, TN 37211, USA","phone_number":"+1 615-833-6936","last_updated":"2023-05-28 21:20"},"geometry":{"type":"Point","coordinates":[-86.738354,36.01559]}},{"type":"Feature","properties":{"church_name":"Andrew Price United Methodist Church","AirtableRecord":"recfwcFItcdrI9zDO","place_id":"ChIJyY6ty-lrZIgRtg5ykq6h78k","name":"Andrew Price Methodist Church","latitude":"36.1689074","longitude":"-86.65883350","address":"2846 Lebanon Pike, Nashville, TN 37214, USA","last_updated":"2023-05-28 21:20"},"geometry":{"type":"Point","coordinates":[-86.658834,36.168907]}},{"type":"Feature","properties":{"church_name":"Antioch Church of Christ","AirtableRecord":"reccFuiaigfnErTwU","place_id":"ChIJdw4HSkBuZIgRwRFRslewH0M","name":"Antioch Church of Christ","website":"http://antiochcofc.org/","latitude":"36.0669592","longitude":"-86.68106470","address":"2142 Antioch Pike, Antioch, TN 37013, USA","phone_number":"+1 615-834-3063","last_updated":"2023-05-28 21:20"},"geometry":{"type":"Point","coordinates":[-86.681065,36.066959]}},{"type":"Feature","properties":{"church_name":"Antioch First Baptist Church","AirtableRecord":"recRnwebkaLrOE3lU","place_id":"ChIJBXk1cA5uZIgR0gEp5UTIEhg","name":"Antioch First Baptist Church","website":"http://www.antiochfirstbaptist.org/","latitude":"36.0601809","longitude":"-86.66865960","address":"2601 Una Antioch Pike, Antioch, TN 37013, USA","phone_number":"+1 615-832-7486","last_updated":"2023-05-28 21:20"},"geometry":{"type":"Point","coordinates":[-86.66866,36.060181]}},{"type":"Feature","properties":{"church_name":"Antioch Jehovah's Witness Church","AirtableRecord":"recYrQqy0rXSQULVC","place_id":"ChIJTRTwHE9sZIgRJPuydezDa7g","name":"Kingdom Hall of Jehovah's Witnesses","website":"http://www.jw.org/","latitude":"36.0939520","longitude":"-86.63319800","address":"2504 Smith Springs Rd, Nashville, TN 37217, USA","phone_number":"+1 615-367-0514","last_updated":"2023-05-28 21:20"},"geometry":{"type":"Point","coordinates":[-86.633198,36.093952]}},{"type":"Feature","properties":{"church_name":"Antioch Missionary Baptist Church","AirtableRecord":"recglsT2MGiHxEc4I","place_id":"ChIJaYxT-e9nZIgR2D14tymw8uI","name":"Antioch Missionary Baptist Church","website":"https://www.antiochbaptistchurchnashville.com/","latitude":"36.2080028","longitude":"-86.75192730","address":"2037 Oakwood Ave, Nashville, TN 37207, USA","phone_number":"+1 615-226-1224","last_updated":"2023-05-28 21:20"},"geometry":{"type":"Point","coordinates":[-86.751927,36.208003]}},{"type":"Feature","properties":{"church_name":"Antioch United Methodist Church","AirtableRecord":"recgrVYRQHBarjS8p","place_id":"ChIJ5b4zjRluZIgRucfbL8f0_64","name":"Antioch United Methodist Church","website":"http://www.antiochumc.net/","latitude":"36.0522427","longitude":"-86.67700190","address":"41 Tusculum Rd, Antioch, TN 37013, USA","phone_number":"+1 615-832-6248","last_updated":"2023-05-28 21:20"},"geometry":{"type":"Point","coordinates":[-86.677002,36.052243]}},{"type":"Feature","properties":{"church_name":"Arlington United Methodist Church","AirtableRecord":"rec51NtmRlJKIVrMU","place_id":"ChIJ4wmon9tuZIgR7kBh0X3U_S0","name":"Arlington United Methodist Church","website":"http://www.arlingtonum.org/","latitude":"36.1154227","longitude":"-86.69424520","address":"1360 Murfreesboro Pike, Nashville, TN 37217, USA","phone_number":"+1 615-361-4896","last_updated":"2023-05-28 21:20"},"geometry":{"type":"Point","coordinates":[-86.694245,36.115423]}},{"type":"Feature","properties":{"church_name":"Ascend Church","AirtableRecord":"rec61r5oHc9iSzEmW","place_id":"ChIJARL-3ANnZIgRBlrHIpttb4c","name":"The Axis Church","website":"http://theaxischurch.org/","latitude":"36.1808526","longitude":"-86.78739980","address":"1423 2nd Ave N, Nashville, TN 37208, USA","phone_number":"+1 615-212-5337","last_updated":"2023-05-28 21:20"},"geometry":{"type":"Point","coordinates":[-86.7874,36.180853]}},{"type":"Feature","properties":{"church_name":"Assumption Church","default_website":"http://www.assumptionchurchnashville.org/","AirtableRecord":"reckkC20VO9Q7itCe","place_id":"ChIJu-ZGIv1mZIgRABBdQ_ywVSA","name":"Assumption Church","website":"https://www.assumptionnashville.org/","latitude":"36.1754320","longitude":"-86.79150370","address":"1227 7th Ave N, Nashville, TN 37208, USA","phone_number":"+1 615-256-2729","last_updated":"2023-05-28 21:20"},"geometry":{"type":"Point","coordinates":[-86.791504,36.175432]}},{"type":"Feature","properties":{"church_name":"Axis Church","default_website":"http://theaxischurch.org/","AirtableRecord":"recpljgrVZFdSk2nD","place_id":"ChIJARL-3ANnZIgRBlrHIpttb4c","name":"The Axis Church","website":"http://theaxischurch.org/","latitude":"36.1808526","longitude":"-86.78739980","address":"1423 2nd Ave N, Nashville, TN 37208, USA","phone_number":"+1 615-212-5337","last_updated":"2023-05-28 21:20"},"geometry":{"type":"Point","coordinates":[-86.7874,36.180853]}},{"type":"Feature","properties":{"church_name":"Bakers Chapel CME Church","AirtableRecord":"recZAqBM7bXmqzYtB","place_id":"ChIJMVsfzOpEZIgRrNqmgnebWm8","name":"Chapel Parson Bakers","latitude":"36.3271515","longitude":"-86.71987780","address":"216 New Brick Church Pike, Goodlettsville, TN 37072, USA","phone_number":"+1 615-420-6348","last_updated":"2023-05-28 21:20"},"geometry":{"type":"Point","coordinates":[-86.719878,36.327151]}},{"type":"Feature","properties":{"church_name":"Barth Vernon United Methodist Church","AirtableRecord":"recyXauuXF2DbTJqQ","place_id":"ChIJf_FfbKJhZIgRUZOOKoi3NDQ","name":"Barth Vernon UMC","website":"http://barthvernonumc.blogspot.com/","latitude":"36.1576295","longitude":"-86.87162590","address":"6200 Robertson Ave, Nashville, TN 37209, USA","phone_number":"+1 615-356-0206","last_updated":"2023-05-28 21:20"},"geometry":{"type":"Point","coordinates":[-86.871626,36.157629]}},{"type":"Feature","properties":{"church_name":"Bass Street Missionary Baptist Church","AirtableRecord":"recXCCrIvdZ0HSIsH","place_id":"ChIJUXGN1ylkZIgRtFRiGFrQwzM","name":"Bass Street Baptist Church","latitude":"36.2488917","longitude":"-86.77556250","address":"3447 Brick Church Pike, Nashville, TN 37207, USA","phone_number":"+1 615-298-4622","last_updated":"2023-05-28 21:20"},"geometry":{"type":"Point","coordinates":[-86.775563,36.248892]}},{"type":"Feature","properties":{"church_name":"Beacon Baptist Church","AirtableRecord":"recgWCITgysiGV2BS","place_id":"ChIJKVWGIOhcZIgR1hUKPn2n3dk","name":"Beacon Baptist Church","latitude":"36.2752188","longitude":"-86.76151340","address":"4040 Marydale Dr, Nashville, TN 37207, USA","phone_number":"+1 615-865-5300","last_updated":"2023-05-28 21:20"},"geometry":{"type":"Point","coordinates":[-86.761513,36.275219]}},{"type":"Feature","properties":{"church_name":"Beech Creek Missionary Baptist Church","AirtableRecord":"recPsHh4OvvQ0Xge7","place_id":"ChIJjQEV8slgZIgRuVFqgux5GL8","name":"Beech Creek Missionary Baptist","website":"http://beech-baptist.lany.io/","latitude":"36.1983643","longitude":"-86.82749530","address":"3101 Curtis St, Nashville, TN 37218, USA","phone_number":"+1 615-255-6277","last_updated":"2023-05-28 21:20"},"geometry":{"type":"Point","coordinates":[-86.827495,36.198364]}},{"type":"Feature","properties":{"church_name":"Beech Grove United Methodist Church","AirtableRecord":"recrheewhfSOHwLMW","place_id":"ChIJ0WFhI4pcZIgRn20JliYDeb4","name":"Beech Grove United Methodist","website":"http://beechgroveumc.net/","latitude":"36.2897775","longitude":"-86.78030840","address":"4318 Brick Church Pike, Whites Creek, TN 37189, USA","phone_number":"+1 615-876-7281","last_updated":"2023-05-28 21:20"},"geometry":{"type":"Point","coordinates":[-86.780308,36.289777]}},{"type":"Feature","properties":{"church_name":"Beersheba Springs Church of Christ","AirtableRecord":"recCYkI0ri4Tv1Kap","place_id":"ChIJlVHWVPxsZIgRETqNSm-X9go","name":"Smith Springs Church of Christ","website":"http://www.smithspringschurch.org/","latitude":"36.0874578","longitude":"-86.61397960","address":"2783 Smith Springs Rd, Nashville, TN 37217, USA","phone_number":"+1 615-361-1618","last_updated":"2023-05-28 21:20"},"geometry":{"type":"Point","coordinates":[-86.61398,36.087458]}},{"type":"Feature","properties":{"church_name":"Bell Road Church of Christ","AirtableRecord":"recF6SRZAzBIpWHaO","place_id":"ChIJu0rKjSpuZIgRHyvkPnOooxU","name":"Bell Road Church of Christ","latitude":"36.0447218","longitude":"-86.69923110","address":"1608 Bell Rd, Nashville, TN 37211, USA","phone_number":"+1 615-833-4444","last_updated":"2023-05-28 21:20"},"geometry":{"type":"Point","coordinates":[-86.699231,36.044722]}},{"type":"Feature","properties":{"church_name":"Bell Road Church of the Nazarene","AirtableRecord":"recquk5snW5ylSRHH","place_id":"ChIJ1zFsvLBtZIgR8bzOb2G34E0","name":"Bell Road Church of the Nazarene","website":"http://bellroadnaz.com/","latitude":"36.0755779","longitude":"-86.63448890","address":"414 Bell Rd, Nashville, TN 37217, USA","phone_number":"+1 615-361-7133","last_updated":"2023-05-28 21:20"},"geometry":{"type":"Point","coordinates":[-86.634489,36.075578]}},{"type":"Feature","properties":{"church_name":"Belle Meade United Methodist Church","AirtableRecord":"reclJd0pfnTAAhh3K","place_id":"ChIJ3eUYdDViZIgROy8LELGooOI","name":"Belle Meade United Methodist Church","website":"https://www.bellemeadeumc.org/","latitude":"36.1148049","longitude":"-86.86434360","address":"121 Davidson Rd, Nashville, TN 37205, USA","phone_number":"+1 615-352-6210","last_updated":"2023-05-28 21:20"},"geometry":{"type":"Point","coordinates":[-86.864344,36.114805]}},{"type":"Feature","properties":{"church_name":"Bellevue Baptist Church","AirtableRecord":"recpFoJaz43fOCExq","place_id":"ChIJVcLTNFyIZIgRFu3akeo5xmI","name":"Bellevue Baptist Church","website":"https://bellevuebaptistnashville.org/","latitude":"36.0750835","longitude":"-86.93578740","address":"7400 US-70S, Nashville, TN 37221, USA","phone_number":"+1 615-646-2711","last_updated":"2023-05-28 21:20"},"geometry":{"type":"Point","coordinates":[-86.935787,36.075083]}},{"type":"Feature","properties":{"church_name":"Bellevue Christian Church","AirtableRecord":"recfXqwKrHa86lv0W","place_id":"ChIJySb7L2aIZIgRQf-Td6C4IkM","name":"Bellevue Christian Church (DOC)","website":"http://bccnashville.org/","latitude":"36.0679168","longitude":"-86.93226430","address":"7201 Old Harding Pike, Nashville, TN 37221, USA","phone_number":"+1 615-646-4894","last_updated":"2023-05-28 21:20"},"geometry":{"type":"Point","coordinates":[-86.932264,36.067917]}},{"type":"Feature","properties":{"church_name":"Bellevue Church of Christ","AirtableRecord":"rec7xVE9rCnc3mQEp","place_id":"ChIJw1T6k12IZIgR1f2F39MOwWU","name":"Bellevue Church of Christ","website":"http://www.bellevue-church.com/","latitude":"36.0732367","longitude":"-86.93578260","address":"7401 Hwy 70 S, Nashville, TN 37221, USA","phone_number":"+1 615-646-9828","last_updated":"2023-05-28 21:20"},"geometry":{"type":"Point","coordinates":[-86.935783,36.073237]}},{"type":"Feature","properties":{"church_name":"Bellevue Jehovah's Witness Church","AirtableRecord":"recmRfEzOfT4ys4Se","place_id":"ChIJ0Y5vbGWIZIgRxv-Jk5d0AL4","name":"Kingdom Hall of Jehovah's Witnesses","website":"http://jw.org/","latitude":"36.0630091","longitude":"-86.93358370","address":"230 Bellevue Rd, Nashville, TN 37221, USA","phone_number":"+1 615-646-3990","last_updated":"2023-05-28 21:20"},"geometry":{"type":"Point","coordinates":[-86.933584,36.063009]}},{"type":"Feature","properties":{"church_name":"Bellevue Presbyterian Church","AirtableRecord":"recD8J4G2UkD7e9Gz","place_id":"ChIJVdPvHF2IZIgRfqv7quiGY6M","name":"Bellevue Presbyterian Church","website":"http://www.bellevuepres.org/","latitude":"36.0745081","longitude":"-86.93412780","address":"100 Cross Timbers Dr, Nashville, TN 37221, USA","phone_number":"+1 615-646-1667","last_updated":"2023-05-28 21:20"},"geometry":{"type":"Point","coordinates":[-86.934128,36.074508]}},{"type":"Feature","properties":{"church_name":"Bellevue United Methodist Church","AirtableRecord":"recqabvcjL4SBMfC2","place_id":"ChIJ58nK8mKIZIgRxfIvyipb6h8","name":"Bellevue United Methodist Church","website":"http://www.bumc.com/","latitude":"36.0625185","longitude":"-86.94087870","address":"7501 Old Harding Pike, Nashville, TN 37221, USA","phone_number":"+1 615-646-4146","last_updated":"2023-05-28 21:20"},"geometry":{"type":"Point","coordinates":[-86.940879,36.062519]}},{"type":"Feature","properties":{"church_name":"Bellshire Baptist Church","AirtableRecord":"recn3gSoM2VRppbjI","place_id":"ChIJ92OrAuBcZIgR5MV8lCBLYy0","name":"Bellshire United Methodist Church","website":"https://www.facebook.com/BellshireUMC/","latitude":"36.2629287","longitude":"-86.76239450","address":"1201 Westchester Dr, Nashville, TN 37207, USA","phone_number":"+1 615-865-2360","last_updated":"2023-05-28 21:20"},"geometry":{"type":"Point","coordinates":[-86.762394,36.262929]}},{"type":"Feature","properties":{"church_name":"Bellshire Church of Christ","AirtableRecord":"recQXHsCZOVXvX1zV","place_id":"ChIJpz5Lhd5cZIgRBT1KItGTW8s","name":"Bellshire Assembly Of God","website":"http://bellshireag.com/","latitude":"36.2674372","longitude":"-86.75863170","address":"1116 Darbytown Dr, Nashville, TN 37207, USA","phone_number":"+1 615-868-8955","last_updated":"2023-05-28 21:20"},"geometry":{"type":"Point","coordinates":[-86.758632,36.267437]}},{"type":"Feature","properties":{"church_name":"Belmont Church","default_website":"http://www.belmont.org/","AirtableRecord":"recvlKeSBHcjX7a1D","place_id":"ChIJ5e3CM5BmZIgRe__CYVzLaaM","name":"Belmont Church","website":"https://www.belmont.org/","latitude":"36.1469688","longitude":"-86.79215240","address":"68 Music Square E, Nashville, TN 37203, USA","phone_number":"+1 615-256-2123","last_updated":"2023-05-28 21:20"},"geometry":{"type":"Point","coordinates":[-86.792152,36.146969]}},{"type":"Feature","properties":{"church_name":"Belmont Heights Baptist Church","default_website":"http://www.belmontheights.org/","AirtableRecord":"recYHpiPpHrDCmMo2","place_id":"ChIJUxEY_yZkZIgRD-7B7By1mYg","name":"Belmont Heights Baptist Church","latitude":"36.1301487","longitude":"-86.79513180","address":"2100 Belmont Blvd, Nashville, TN 37212, USA","phone_number":"+1 615-460-2422","last_updated":"2023-05-28 21:20"},"geometry":{"type":"Point","coordinates":[-86.795132,36.130149]}},{"type":"Feature","properties":{"church_name":"Belmont United Methodist Church","default_website":"http://www.belmontumc.org/","AirtableRecord":"recLBudcQT5MIf1wc","place_id":"ChIJOXrAuJ9mZIgRva1SEaGRZUw","name":"Belmont United Methodist Church","website":"http://www.belmontumc.org/","latitude":"36.1351760","longitude":"-86.79984900","address":"2007 Acklen Ave, Nashville, TN 37212, USA","phone_number":"+1 615-383-0832","last_updated":"2023-05-28 21:20"},"geometry":{"type":"Point","coordinates":[-86.799849,36.135176]}},{"type":"Feature","properties":{"church_name":"Berean Baptist Church","AirtableRecord":"recLVsOL5DyDKbbtT","place_id":"ChIJ3WlkURxeZIgRHZtd2aNyZCc","name":"Berean Baptist Church","website":"http://www.bereanbaptistnashville.org/","latitude":"36.2240982","longitude":"-86.83585310","address":"4825 Fairmeade Ct, Nashville, TN 37218, USA","phone_number":"+1 615-876-4491","last_updated":"2023-05-28 21:20"},"geometry":{"type":"Point","coordinates":[-86.835853,36.224098]}},{"type":"Feature","properties":{"church_name":"Bethel Church of the Nazarene","AirtableRecord":"recQ0vIjM1cVADRsZ","place_id":"ChIJy4UOgLJCZIgR481UiMc4Q2o","name":"Bethel Church of the Nazarene","website":"http://bethelnaz.church/","latitude":"36.2302437","longitude":"-86.73867340","address":"455 Broadmoor Dr, Nashville, TN 37216, USA","phone_number":"+1 615-262-3396","last_updated":"2023-05-28 21:20"},"geometry":{"type":"Point","coordinates":[-86.738673,36.230244]}},{"type":"Feature","properties":{"church_name":"Bethel House of God","AirtableRecord":"recBQNP9LLdEazdco","place_id":"ChIJ0_Dhk7RDZIgRwVgMDwUR9yk","name":"Bethel House of God","latitude":"36.2624540","longitude":"-86.68534090","address":"1022 E Old Hickory Blvd, Madison, TN 37115, USA","phone_number":"+1 615-865-6357","last_updated":"2023-05-28 21:20"},"geometry":{"type":"Point","coordinates":[-86.685341,36.262454]}},{"type":"Feature","properties":{"church_name":"Bethel Primitive Baptist Church","AirtableRecord":"recoN2IhX4Fh41DI0","place_id":"ChIJHaI4-RxoZIgR_z43-c5-27k","name":"Bethel Primitive Baptist Church","latitude":"36.2156104","longitude":"-86.72860870","address":"Nashville, TN 37216, USA","last_updated":"2023-05-28 21:20"},"geometry":{"type":"Point","coordinates":[-86.728609,36.21561]}},{"type":"Feature","properties":{"church_name":"Bethel World Outreach Church","AirtableRecord":"rec4l9kjcOvCcgECl","place_id":"ChIJW8u7WlF7ZIgRK1BF-Q_TTe8","name":"Bethel World Outreach Church","website":"http://www.bethelworld.org/","latitude":"36.0406625","longitude":"-86.81513180","address":"5670 Granny White Pike, Brentwood, TN 37027, USA","phone_number":"+1 615-371-1000","last_updated":"2023-05-28 21:20"},"geometry":{"type":"Point","coordinates":[-86.815132,36.040663]}},{"type":"Feature","properties":{"church_name":"Bethlehem United Primitive Baptist Church","AirtableRecord":"recBWHD9xMF0W38g7","place_id":"ChIJTUQLZipnZIgRUfyaS1mDtiY","name":"Bethlehem United Primitive Baptist Church","website":"http://bethlehemunitedpbc.org/contact.htm","latitude":"36.1786218","longitude":"-86.81897700","address":"1700 26th Ave N, Nashville, TN 37208, USA","phone_number":"+1 615-255-4248","last_updated":"2023-05-28 21:20"},"geometry":{"type":"Point","coordinates":[-86.818977,36.178622]}},{"type":"Feature","properties":{"church_name":"Blakemore United Methodist Church","default_website":"http://blakemoreumc.org/","AirtableRecord":"reck93LRMUoBVMG9N","place_id":"ChIJ-5tcJ_5jZIgRRyZkKQGVEuI","name":"Blakemore United Methodist Church","website":"http://www.blakemoreumc.org/","latitude":"36.1340016","longitude":"-86.82582180","address":"3601 West End Ave, Nashville, TN 37205, USA","phone_number":"+1 615-297-6519","last_updated":"2023-05-28 19:57"},"geometry":{"type":"Point","coordinates":[-86.825822,36.134002]}},{"type":"Feature","properties":{"church_name":"Blueprint Church","AirtableRecord":"receKDRkoo3xKnnuS","place_id":"ChIJe5jK0V1hZIgRRk18zfS6Z6U","name":"Blueprint Church","website":"https://www.blueprintchurch.tv/?utm_source=google&utm_medium=organic&utm_campaign=google_my_business","latitude":"36.3195008","longitude":"-86.71258750","address":"226 S Main St, Goodlettsville, TN 37072, USA","phone_number":"+1 615-541-9580","last_updated":"2023-05-28 19:57"},"geometry":{"type":"Point","coordinates":[-86.712587,36.319501]}},{"type":"Feature","properties":{"church_name":"Bordeaux S.D.A. Church","AirtableRecord":"recbYHdE6aC6nzH4A","place_id":"ChIJdXVWMwleZIgR39X_TERsKwg","name":"Nashville Bordeaux Seventh-day Adventist Church","website":"http://www.bordeaux22.adventistchurchconnect.org/","latitude":"36.2359649","longitude":"-86.82814460","address":"5121 Buena Vista Pike, Nashville, TN 37218, USA","phone_number":"+1 615-876-3630","last_updated":"2023-05-28 19:57"},"geometry":{"type":"Point","coordinates":[-86.828145,36.235965]}},{"type":"Feature","properties":{"church_name":"Born Again Church","AirtableRecord":"recFEEmqLNCQBj0DC","place_id":"ChIJ577-rkthZIgRMWHsPjGUk98","name":"Born Again Church","website":"http://bornagainchurch.org/","latitude":"36.2056930","longitude":"-86.80364390","address":"858 W Trinity Ln, Nashville, TN 37207, USA","phone_number":"+1 615-228-9287","last_updated":"2023-05-28 19:57"},"geometry":{"type":"Point","coordinates":[-86.803644,36.205693]}},{"type":"Feature","properties":{"church_name":"Braden United Methodist Church","AirtableRecord":"recptNnYMGl3VtNHY","place_id":"ChIJjYsDzjRmZIgRYQvtlX5_6ds","name":"Braden United Methodist Church","website":"http://bradenmemorialumc.com/","latitude":"36.1757671","longitude":"-86.75867550","address":"803 Main St, Nashville, TN 37206, USA","phone_number":"+1 615-256-1323","last_updated":"2023-05-28 19:57"},"geometry":{"type":"Point","coordinates":[-86.758675,36.175767]}},{"type":"Feature","properties":{"church_name":"Brenthaven Cumberland Presbyterian","default_website":"http://brenthaven.org/","AirtableRecord":"recth6Fg5bSbx6J0Q","place_id":"ChIJ1c9FOhF7ZIgRTWACavDz5eU","name":"Brenthaven Cumberland Presbyterian","website":"http://brenthaven.org/","latitude":"36.0190881","longitude":"-86.79556310","address":"516 Franklin Rd, Brentwood, TN 37027, USA","phone_number":"+1 615-373-4826","last_updated":"2023-05-28 19:57"},"geometry":{"type":"Point","coordinates":[-86.795563,36.019088]}},{"type":"Feature","properties":{"church_name":"Brentwood Baptist Church","default_website":"http://www.brentwoodbaptist.com/","AirtableRecord":"recIC1wQ3xAOBKcSk","place_id":"ChIJa7o3kJh7ZIgRwEYWWSrbzDI","name":"Brentwood Baptist","website":"http://www.brentwoodbaptist.com/","latitude":"35.9966870","longitude":"-86.80281800","address":"7777 Concord Rd, Brentwood, TN 37027, USA","phone_number":"+1 615-324-6100","last_updated":"2023-05-28 19:57"},"geometry":{"type":"Point","coordinates":[-86.802818,35.996687]}},{"type":"Feature","properties":{"church_name":"Brentwood Church of Christ","default_website":"http://www.brentwoodchurch.com/","AirtableRecord":"recYKMgIwk2ZcmFgD","place_id":"ChIJEWSMFVp7ZIgR21H7N9O_PmI","name":"Brentwood Church of Christ","website":"https://brentwoodchurch.com/","latitude":"36.0350933","longitude":"-86.81547290","address":"208 Granny White Pike, Brentwood, TN 37027, USA","phone_number":"+1 615-373-0511","last_updated":"2023-05-28 19:57"},"geometry":{"type":"Point","coordinates":[-86.815473,36.035093]}},{"type":"Feature","properties":{"church_name":"Brentwood Hills Church of Christ","default_website":"http://brentwoodhills.org/","AirtableRecord":"recDQfueWmzyzqyjA","place_id":"ChIJxRoIaCNlZIgRhlrdPEIhlZQ","name":"Brentwood Hills Church of Christ","website":"http://brentwoodhills.org/","latitude":"36.0629712","longitude":"-86.77259220","address":"5120 Franklin Pike, Nashville, TN 37220, USA","phone_number":"+1 615-832-2541","last_updated":"2023-05-28 19:57"},"geometry":{"type":"Point","coordinates":[-86.772592,36.062971]}},{"type":"Feature","properties":{"church_name":"Brentwood United Methodist Church","AirtableRecord":"recFj7CvaiKTslucc","place_id":"ChIJrVdv8Dx7ZIgRWLl839zOHCQ","name":"Brentwood United Methodist Church","website":"http://www.bumc.net/","latitude":"36.0280281","longitude":"-86.79373250","address":"309 Franklin Rd, Brentwood, TN 37027, USA","phone_number":"+1 615-373-3663","last_updated":"2023-05-28 19:57"},"geometry":{"type":"Point","coordinates":[-86.793733,36.028028]}},{"type":"Feature","properties":{"church_name":"Bridge Community Church","AirtableRecord":"recfyni7slWSDXBa1","place_id":"ChIJVe9ccRplZIgRadpRBah-coI","name":"Bridge Community Church","website":"http://www.bridgeforchrist.com/","latitude":"36.0749358","longitude":"-86.77216270","address":"4916 Franklin Pike, Nashville, TN 37220, USA","phone_number":"+1 615-678-8725","last_updated":"2023-05-28 20:03"},"geometry":{"type":"Point","coordinates":[-86.772163,36.074936]}},{"type":"Feature","properties":{"church_name":"Bridges Nashville","AirtableRecord":"rec2FeKAypz2b8if2","place_id":"ChIJM5Xi5GdmZIgRGn4UjPyH2kM","name":"Bridges Nashville","website":"https://bridgesnashville.com/","latitude":"36.1538350","longitude":"-86.77226800","address":"618 4th Ave S, Nashville, TN 37210, USA","phone_number":"+1 615-436-2378","last_updated":"2023-05-28 19:57"},"geometry":{"type":"Point","coordinates":[-86.772268,36.153835]}},{"type":"Feature","properties":{"church_name":"Broadmoor Baptist Church","AirtableRecord":"recHj8ZFKelWHLxAb","place_id":"ChIJezYo37FCZIgRkRIUtbTsNZc","name":"Broadmoor Baptist Church","latitude":"36.2295569","longitude":"-86.73532470","address":"518 Broadmoor Dr, Nashville, TN 37216, USA","phone_number":"+1 615-262-1631","last_updated":"2023-05-28 20:03"},"geometry":{"type":"Point","coordinates":[-86.735325,36.229557]}},{"type":"Feature","properties":{"church_name":"Broadmoor Church of God","AirtableRecord":"recqqTqUyS9wVH6EY","place_id":"ChIJezYo37FCZIgRkRIUtbTsNZc","name":"Broadmoor Baptist Church","latitude":"36.2295569","longitude":"-86.73532470","address":"518 Broadmoor Dr, Nashville, TN 37216, USA","phone_number":"+1 615-262-1631","last_updated":"2023-05-28 20:03"},"geometry":{"type":"Point","coordinates":[-86.735325,36.229557]}},{"type":"Feature","properties":{"church_name":"Brook Hollow Baptist Church","default_website":"http://www.brookhollow.net/","AirtableRecord":"recJOB2e49TbRuozr","place_id":"ChIJ-Xq3kRRiZIgRBJFDKoUN0vU","name":"Brook Hollow Baptist Church","website":"http://www.brookhollow.net/","latitude":"36.1163655","longitude":"-86.88671810","address":"678 Brk Holw Rd, Nashville, TN 37205, USA","phone_number":"+1 615-352-1295","last_updated":"2023-05-28 21:21"},"geometry":{"type":"Point","coordinates":[-86.886718,36.116366]}},{"type":"Feature","properties":{"church_name":"Brookmeade Congregational UCC","default_website":"http://www.brookmeadeucc.org/","AirtableRecord":"recYr588EKeR7B9dJ","place_id":"ChIJv-0l1z5iZIgRW9sweINzC5c","name":"Brookmeade Congregational United Church of Christ","website":"https://brookmeadeucc.org/","latitude":"36.1178919","longitude":"-86.87794620","address":"700 Bresslyn Rd, Nashville, TN 37205, USA","phone_number":"+1 615-352-4702","last_updated":"2023-05-28 21:21"},"geometry":{"type":"Point","coordinates":[-86.877946,36.117892]}},{"type":"Feature","properties":{"church_name":"Brookside Church Of Christ","AirtableRecord":"recNLdJOZq5KqiSCb","place_id":"ChIJvQPpE3FvZIgRNC86Fcgfncc","name":"Brookside Church of Christ","website":"https://www.facebook.com/Brookside-Church-of-Christ-107501301302493","latitude":"36.0589672","longitude":"-86.70852210","address":"335 Tusculum Rd, Nashville, TN 37211, USA","phone_number":"+1 615-794-7021","last_updated":"2023-05-28 21:21"},"geometry":{"type":"Point","coordinates":[-86.708522,36.058967]}},{"type":"Feature","properties":{"church_name":"Brush Hill Church (Cumberland Presbyterian)","AirtableRecord":"recQzzvaeL0EL21zm","place_id":"ChIJw5uStZxCZIgRQHYC-bPyFnU","name":"Brush Hill Cumberland Presbyterian","website":"http://brushhillchurch.org/","latitude":"36.2217667","longitude":"-86.71195340","address":"3705 Brush Hill Rd, Nashville, TN 37216, USA","phone_number":"+1 615-227-2504","last_updated":"2023-05-28 21:21"},"geometry":{"type":"Point","coordinates":[-86.711953,36.221767]}},{"type":"Feature","properties":{"church_name":"Buena Vista Church of Christ","AirtableRecord":"rectJbcb6Wtg1c6Vf","place_id":"ChIJnc12GUtnZIgR7Daycz6HEBk","name":"Buena Vista Church of Christ","website":"https://www.buenavistachurchofc.com/","latitude":"36.2033457","longitude":"-86.82056050","address":"2520 Buena Vista Pike, Nashville, TN 37218, USA","phone_number":"+1 615-256-7331","last_updated":"2023-05-28 21:21"},"geometry":{"type":"Point","coordinates":[-86.82056,36.203346]}},{"type":"Feature","properties":{"church_name":"Building Truth Bible Church","AirtableRecord":"recllqaOtib5Quf9m","place_id":"ChIJTSZKJMxmZIgRJzsKsp1b8iE","name":"Spirit and Truth Believers Fellowship","website":"http://www.stbfchurch.com/","latitude":"36.2291186","longitude":"-86.76049410","address":"3048 Dickerson Pike, Nashville, TN 37207, USA","phone_number":"+1 615-669-8411","last_updated":"2023-05-28 21:21"},"geometry":{"type":"Point","coordinates":[-86.760494,36.229119]}},{"type":"Feature","properties":{"church_name":"Calvary Baptist Church","AirtableRecord":"rec0MMmAyuGYyuSUq","place_id":"ChIJQa1XIs9mZIgRsfe1Ow34iqk","name":"Mt. Calvary Missionary Baptist Church","website":"http://mtcalvarymbchurchnashville.org/","latitude":"36.1624181","longitude":"-86.81398770","address":"2448 Herman St, Nashville, TN 37208, USA","phone_number":"+1 615-329-1063","last_updated":"2023-05-28 21:21"},"geometry":{"type":"Point","coordinates":[-86.813988,36.162418]}},{"type":"Feature","properties":{"church_name":"Calvary Chapel at Rivergate","AirtableRecord":"recLfs9qASK17Vepv","place_id":"ChIJ-yAlzj5EZIgRSU6NNcOlN3o","name":"Calvary Chapel at Long Hollow","website":"http://www.cclonghollow.com/","latitude":"36.3387480","longitude":"-86.68021800","address":"1001 Willis Branch Rd, Goodlettsville, TN 37072, USA","phone_number":"+1 615-851-3088","last_updated":"2023-05-28 21:21"},"geometry":{"type":"Point","coordinates":[-86.680218,36.338748]}},{"type":"Feature","properties":{"church_name":"Calvary Church - Korean American","AirtableRecord":"recBQDYfWj3zsHH20","place_id":"ChIJxW4qCnVuZIgRgE6_0FqpOZc","name":"Calvary Church-Korean American","latitude":"36.0680941","longitude":"-86.66412960","address":"630 Richards Rd, Antioch, TN 37013, USA","last_updated":"2023-05-28 21:21"},"geometry":{"type":"Point","coordinates":[-86.66413,36.068094]}},{"type":"Feature","properties":{"church_name":"Calvary Church of Christ","AirtableRecord":"recbPCuTMlXnsw9a3","place_id":"ChIJ0xhBA9hlZIgR0c3pAMkjhdg","name":"Calvary Chapel Nashville","website":"https://calvarychapelnashville.com/","latitude":"36.1322811","longitude":"-86.77157000","address":"630 Benton Ave, Nashville, TN 37204, USA","phone_number":"+1 615-739-7800","last_updated":"2023-05-28 21:21"},"geometry":{"type":"Point","coordinates":[-86.77157,36.132281]}},{"type":"Feature","properties":{"church_name":"Calvary Pentecostal Church","AirtableRecord":"recTeuasM2hTH5Elo","place_id":"ChIJC_s0w_NcZIgRHht5dFC2P6E","name":"Calvary Pentecostal Church","latitude":"36.2800945","longitude":"-86.77535320","address":"1390 Old Hickory Blvd, Nashville, TN 37207, USA","last_updated":"2023-05-28 21:21"},"geometry":{"type":"Point","coordinates":[-86.775353,36.280094]}},{"type":"Feature","properties":{"church_name":"Calvary United Methodist Church","default_website":"http://www.calvaryumc.com/","AirtableRecord":"recZsCTcVznqvaEDn","place_id":"ChIJlYHph3ZkZIgRoLi3zwn1NBQ","name":"Calvary United Methodist Church","website":"http://www.calvaryumc.com/","latitude":"36.1103586","longitude":"-86.81246430","address":"3701 Hillsboro Pike, Nashville, TN 37215, USA","phone_number":"+1 615-297-7562","last_updated":"2023-05-28 21:21"},"geometry":{"type":"Point","coordinates":[-86.812464,36.110359]}},{"type":"Feature","properties":{"church_name":"Campbell Road Church Of Christ","AirtableRecord":"recZ5u5tbNnAVX9S8","place_id":"ChIJu0rKjSpuZIgRHyvkPnOooxU","name":"Bell Road Church of Christ","latitude":"36.0447218","longitude":"-86.69923110","address":"1608 Bell Rd, Nashville, TN 37211, USA","phone_number":"+1 615-833-4444","last_updated":"2023-05-28 21:20"},"geometry":{"type":"Point","coordinates":[-86.699231,36.044722]}},{"type":"Feature","properties":{"church_name":"Cane Ridge Free Will Baptist Church","AirtableRecord":"recKW1LIcZKCwWWfm","place_id":"ChIJjViYl4dxZIgR6Z9rfJZq0B0","name":"Cane Ridge Free Will Baptist Church","website":"http://www.caneridgefwb.org/","latitude":"36.0085974","longitude":"-86.66388460","address":"13984 Old Hickory Blvd, Antioch, TN 37013, USA","phone_number":"+1 615-941-1575","last_updated":"2023-05-28 21:21"},"geometry":{"type":"Point","coordinates":[-86.663885,36.008597]}},{"type":"Feature","properties":{"church_name":"Cane Tabernacle Church Of God","AirtableRecord":"recS5HxINqDdQd0b4","place_id":"ChIJR_zMIiRnZIgRLs_X-9OguwU","name":"Pentecostal Tabernacle Church of God in Christ","latitude":"36.1834517","longitude":"-86.80826030","address":"Nashville, TN 37208, USA","last_updated":"2023-05-28 21:21"},"geometry":{"type":"Point","coordinates":[-86.80826,36.183452]}},{"type":"Feature","properties":{"church_name":"Capers Memorial CME Church","AirtableRecord":"reclgnlJt7pco8r89","place_id":"ChIJBaX_PuxmZIgRhMzH3zfrbKg","name":"Capers Memorial CME Church","latitude":"36.1593139","longitude":"-86.79504420","address":"319 15th Ave N, Nashville, TN 37203, USA","phone_number":"+1 615-329-2082","last_updated":"2023-05-28 21:21"},"geometry":{"type":"Point","coordinates":[-86.795044,36.159314]}},{"type":"Feature","properties":{"church_name":"Carpenter Shop Church","AirtableRecord":"recFBReHTWqmudtgj","place_id":"ChIJf3XrfAZoZIgRE9nVFgLWc_s","name":"A Chris Keenan Carpentry","website":"http://eastnashvillecabinets.com/","latitude":"36.2100943","longitude":"-86.73606610","address":"1015 W Kirkland Ave, Nashville, TN 37216, USA","phone_number":"+1 615-258-4135","last_updated":"2023-05-28 21:21"},"geometry":{"type":"Point","coordinates":[-86.736066,36.210094]}},{"type":"Feature","properties":{"church_name":"Cathedral of Praise","AirtableRecord":"recPvCNo68k4oLg8S","place_id":"ChIJdxx2OKdgZIgRsUqdAhpxf8I","name":"Cathedral of Praise Inc","website":"http://www.cathedralpraise.org/","latitude":"36.2196175","longitude":"-86.83629250","address":"4300 Clarksville Pike, Nashville, TN 37218, USA","phone_number":"+1 615-876-8740","last_updated":"2023-05-28 21:21"},"geometry":{"type":"Point","coordinates":[-86.836292,36.219617]}},{"type":"Feature","properties":{"church_name":"Cathedral of the Incarnation","default_website":"https://cathedralnashville.org/","AirtableRecord":"recIq5koWHHc7VKlk","place_id":"ChIJncF-A75mZIgRD_Me-uI1gCs","name":"Cathedral of the Incarnation","website":"http://cathedralnashville.org/","latitude":"36.1507870","longitude":"-86.79966500","address":"2015 West End Ave, Nashville, TN 37203, USA","phone_number":"+1 615-327-2330","last_updated":"2023-05-28 21:21"},"geometry":{"type":"Point","coordinates":[-86.799665,36.150787]}},{"type":"Feature","properties":{"church_name":"Celebrate Life Community Church","AirtableRecord":"recC5lbPemDKPvpdc","place_id":"ChIJJWtt_qxDZIgRJrkNgDrCa5g","name":"Celebrate Life Community Church","latitude":"36.2635439","longitude":"-86.69344590","address":"801 E Old Hickory Blvd #191, Madison, TN 37115, USA","phone_number":"+1 615-865-7255","last_updated":"2023-05-28 21:21"},"geometry":{"type":"Point","coordinates":[-86.693446,36.263544]}},{"type":"Feature","properties":{"church_name":"Central Pike Church of Christ","AirtableRecord":"rec4wIExuyLUl9S4k","place_id":"ChIJ444mLNVqZIgRH21GBo5eK24","name":"Central Pike Church of Christ","website":"http://centralpikechurchofchrist.org/","latitude":"36.1734896","longitude":"-86.58125350","address":"4240 Central Pike, Hermitage, TN 37076, USA","phone_number":"+1 615-883-2696","last_updated":"2023-05-28 21:21"},"geometry":{"type":"Point","coordinates":[-86.581254,36.17349]}},{"type":"Feature","properties":{"church_name":"Chapel Avenue Church Of Christ","AirtableRecord":"receZZuS7ALM9ziEm","place_id":"ChIJ9bkl8htnZIgRwcQTANGocPw","name":"Seventh Avenue Church of Christ","latitude":"36.1829459","longitude":"-86.79593720","address":"1730 7th Ave N, Nashville, TN 37208, USA","last_updated":"2023-05-28 21:21"},"geometry":{"type":"Point","coordinates":[-86.795937,36.182946]}},{"type":"Feature","properties":{"church_name":"Charlotte Avenue Church of Christ","AirtableRecord":"reckop5kqbOzlRtnw","place_id":"ChIJiyrTKnZhZIgRu189h84ixcM","name":"Charlotte Heights Church of Christ","website":"https://charlotteheights.org/","latitude":"36.1320698","longitude":"-86.89318330","address":"6833 Old Charlotte Pike, Nashville, TN 37209, USA","phone_number":"+1 615-356-4367","last_updated":"2023-05-28 21:21"},"geometry":{"type":"Point","coordinates":[-86.893183,36.13207]}},{"type":"Feature","properties":{"church_name":"Charlotte Road Baptist Church","AirtableRecord":"reczPSEdXuEMorPYq","place_id":"ChIJwQYV7LyJZIgRyfNqbVV_4-o","name":"CRBC Nashville","website":"http://www.crbcnashville.org/","latitude":"36.1112149","longitude":"-86.93043110","address":"7511 Charlotte Pike, Nashville, TN 37209, USA","phone_number":"+1 615-356-5810","last_updated":"2023-05-28 21:21"},"geometry":{"type":"Point","coordinates":[-86.930431,36.111215]}},{"type":"Feature","properties":{"church_name":"Christ Christian Fellowship Church","AirtableRecord":"recqDmuzDWNltdgS4","place_id":"ChIJa1lwVBpuZIgRovLyZjIkXIw","name":"Lighthouse Christian Fellowship","website":"http://lighthousenashville.org/","latitude":"36.0030520","longitude":"-86.62729250","address":"210 Battle Rd, Antioch, TN 37013, USA","phone_number":"+1 615-331-6241","last_updated":"2023-05-28 21:21"},"geometry":{"type":"Point","coordinates":[-86.627292,36.003052]}},{"type":"Feature","properties":{"church_name":"Christ Church","default_website":"http://www.christchurchnashville.org/","AirtableRecord":"recDi34TRKWRkPymH","place_id":"ChIJzRxwufVmZIgRq4_Qvk1Ifw8","name":"Christ Church Cathedral","website":"http://christcathedral.org/","latitude":"36.1588225","longitude":"-86.78321180","address":"900 Broadway, Nashville, TN 37203, USA","phone_number":"+1 615-255-7729","last_updated":"2023-05-28 21:21"},"geometry":{"type":"Point","coordinates":[-86.783212,36.158822]}},{"type":"Feature","properties":{"church_name":"Christ Church Cathedral","default_website":"http://www.christcathedral.org/","AirtableRecord":"rec3YhUsizbqiQHPx","place_id":"ChIJzRxwufVmZIgRq4_Qvk1Ifw8","name":"Christ Church Cathedral","website":"http://christcathedral.org/","latitude":"36.1588225","longitude":"-86.78321180","address":"900 Broadway, Nashville, TN 37203, USA","phone_number":"+1 615-255-7729","last_updated":"2023-05-28 21:21"},"geometry":{"type":"Point","coordinates":[-86.783212,36.158822]}},{"type":"Feature","properties":{"church_name":"Christ Church Nashville","AirtableRecord":"recx3zkygp3sIYC6Z","place_id":"ChIJ1fE90x1wZIgRVMqIrvztJJs","name":"Christ Church Nashville","website":"http://www.christchurchnashville.org/","latitude":"36.0419227","longitude":"-86.72789570","address":"15354 Old Hickory Blvd, Nashville, TN 37211, USA","phone_number":"+1 615-834-6171","last_updated":"2023-05-28 21:21"},"geometry":{"type":"Point","coordinates":[-86.727896,36.041923]}},{"type":"Feature","properties":{"church_name":"Christ Church Of The Nazarene","AirtableRecord":"recaPJKTDLP28wbGA","place_id":"ChIJ1zFsvLBtZIgR8bzOb2G34E0","name":"Bell Road Church of the Nazarene","website":"http://bellroadnaz.com/","latitude":"36.0755779","longitude":"-86.63448890","address":"414 Bell Rd, Nashville, TN 37217, USA","phone_number":"+1 615-361-7133","last_updated":"2023-05-28 21:20"},"geometry":{"type":"Point","coordinates":[-86.634489,36.075578]}},{"type":"Feature","properties":{"church_name":"Christ Church Pentecostal","AirtableRecord":"recXGpWbxeZDLVv0s","place_id":"ChIJJT2eUilnZIgRzgtFodv1CWQ","name":"Church of God in Christ","latitude":"36.1829290","longitude":"-86.81563640","address":"2006 24th Ave N, Nashville, TN 37208, USA","last_updated":"2023-05-28 21:21"},"geometry":{"type":"Point","coordinates":[-86.815636,36.182929]}},{"type":"Feature","properties":{"church_name":"Christ Community Church","default_website":"http://christcommunity.org/","AirtableRecord":"reccVrWXhpsn3miKy","place_id":"ChIJJzcpbbdnZIgRtDG4CahPscE","name":"Community Christian Church","website":"http://cccdisciples.com/","latitude":"36.1857213","longitude":"-86.76513120","address":"828 Lischey Ave, Nashville, TN 37207, USA","phone_number":"+1 615-647-7575","last_updated":"2023-05-28 21:21"},"geometry":{"type":"Point","coordinates":[-86.765131,36.185721]}},{"type":"Feature","properties":{"church_name":"Christ for The Nations Church","AirtableRecord":"recW9KI2KMTlsokeC","place_id":"ChIJW2hg9m5lZIgRfy7GjQj-wKA","name":"Christ for the Nations Church","website":"https://www.thenations.church/","latitude":"36.1251068","longitude":"-86.71263190","address":"308 E Thompson Ln, Nashville, TN 37217, USA","phone_number":"+1 615-200-0034","last_updated":"2023-05-28 21:21"},"geometry":{"type":"Point","coordinates":[-86.712632,36.125107]}},{"type":"Feature","properties":{"church_name":"Christ Lutheran Church","AirtableRecord":"recCAJ8QGyf80J5a9","place_id":"ChIJ0e0PArZvZIgRKdcM-oJ9LHo","name":"Christ Lutheran Church - ELCA","website":"https://www.clcnashville.org/","latitude":"36.0678503","longitude":"-86.70725650","address":"299 Haywood Ln, Nashville, TN 37211, USA","phone_number":"+1 615-833-0476","last_updated":"2023-05-28 21:21"},"geometry":{"type":"Point","coordinates":[-86.707256,36.06785]}},{"type":"Feature","properties":{"church_name":"Christ Only Church","AirtableRecord":"recpE6lt7a4YfLozj","place_id":"ChIJZ5_gV1VtZIgRBpdD89RB77w","name":"CHRIST ONLY CHURCH","latitude":"36.0407476","longitude":"-86.58105820","address":"4121 Pepperwood Dr, Antioch, TN 37013, USA","phone_number":"+1 615-887-0298","last_updated":"2023-05-28 21:21"},"geometry":{"type":"Point","coordinates":[-86.581058,36.040748]}},{"type":"Feature","properties":{"church_name":"Christ Presbyterian Church","default_website":"http://www.christpres.org/","AirtableRecord":"recyDlxj59XA764l5","place_id":"ChIJ0UV30jR9ZIgRNU_xhQ-PEKU","name":"Christ Presbyterian Church","website":"http://christpres.org/","latitude":"36.0491846","longitude":"-86.87898130","address":"2323 Old Hickory Blvd, Nashville, TN 37215, USA","phone_number":"+1 615-373-2311","last_updated":"2023-05-28 21:21"},"geometry":{"type":"Point","coordinates":[-86.878981,36.049185]}},{"type":"Feature","properties":{"church_name":"Christ the King Catholic Church","default_website":"http://www.ctk.org/","AirtableRecord":"recy0TwsHpZ5jhvwb","place_id":"ChIJ6y9XCzxkZIgRxmC1HLySHKo","name":"Christ the King Catholic Church","website":"http://www.ctk.org/","latitude":"36.1189173","longitude":"-86.79710900","address":"3001 Belmont Blvd, Nashville, TN 37212, USA","phone_number":"+1 615-292-2884","last_updated":"2023-05-28 21:21"},"geometry":{"type":"Point","coordinates":[-86.797109,36.118917]}},{"type":"Feature","properties":{"church_name":"Christ's Glorious Tabernacle Church","AirtableRecord":"recTVNakGnJrfe2he","place_id":"ChIJ8YkvF9xnZIgRjgHgd39QLcU","name":"Tabernacle of Glory","website":"http://www.tabernacleofglory.com/","latitude":"36.1931485","longitude":"-86.74750710","address":"945 Douglas Ave, Nashville, TN 37206, USA","phone_number":"+1 615-297-4562","last_updated":"2023-05-28 21:21"},"geometry":{"type":"Point","coordinates":[-86.747507,36.193148]}},{"type":"Feature","properties":{"church_name":"Christian Life Church","AirtableRecord":"recJxYNt7VdoFYHAp","place_id":"ChIJPVdORcpxZIgR2f__KTV9Ub4","name":"Nashville Life Church","website":"http://www.nashvillelifechurch.com/","latitude":"36.1145983","longitude":"-86.74754170","address":"2639 Nolensville Pk, Nashville, TN 37211, USA","phone_number":"+1 615-838-4117","last_updated":"2023-05-28 21:21"},"geometry":{"type":"Point","coordinates":[-86.747542,36.114598]}},{"type":"Feature","properties":{"church_name":"Church In Nashville","AirtableRecord":"recgbOcGPvUHi69Tt","place_id":"ChIJ5e3CM5BmZIgRe__CYVzLaaM","name":"Belmont Church","website":"https://www.belmont.org/","latitude":"36.1469688","longitude":"-86.79215240","address":"68 Music Square E, Nashville, TN 37203, USA","phone_number":"+1 615-256-2123","last_updated":"2023-05-28 21:20"},"geometry":{"type":"Point","coordinates":[-86.792152,36.146969]}},{"type":"Feature","properties":{"church_name":"Church Inc Faith","AirtableRecord":"rechMGUsq9oSuJLtO","place_id":"ChIJX1sqBgxoZIgRwKQ9RvwKWHU","name":"Faith Church","website":"http://www.victoriousliving.org/","latitude":"36.2018340","longitude":"-86.73652290","address":"1208 Litton Ave, Nashville, TN 37216, USA","phone_number":"+1 615-226-2255","last_updated":"2023-05-28 21:21"},"geometry":{"type":"Point","coordinates":[-86.736523,36.201834]}},{"type":"Feature","properties":{"church_name":"Church of Christ","AirtableRecord":"recxJSz1rbj4E0j9D","place_id":"ChIJnwBLvOdmZIgRemJoLHWt5k0","name":"Church of Christ at Jackson Street","website":"http://jacksonst.org/","latitude":"36.1680595","longitude":"-86.80051030","address":"1408 Jackson St, Nashville, TN 37208, USA","phone_number":"+1 615-321-0530","last_updated":"2023-05-28 21:21"},"geometry":{"type":"Point","coordinates":[-86.80051,36.168059]}},{"type":"Feature","properties":{"church_name":"Church of Christ at Bordeaux","AirtableRecord":"reckcn5LqRiNuDvz9","place_id":"ChIJz0jWX8RgZIgRxyUUnKTxHYU","name":"Church of Christ In Bordeaux","latitude":"36.1956806","longitude":"-86.84045760","address":"3715 John Mallette Dr, Nashville, TN 37218, USA","phone_number":"+1 615-454-5174","last_updated":"2023-05-28 21:21"},"geometry":{"type":"Point","coordinates":[-86.840458,36.195681]}},{"type":"Feature","properties":{"church_name":"Church of Christ at Broadmoor","AirtableRecord":"recmNVZ49nPyESKj9","place_id":"ChIJ9ZjiN0VdZIgR5F1xsvgtam8","name":"Church of Christ At Broadmoor","website":"https://broadmoorchurch.com/","latitude":"36.2305441","longitude":"-86.75162570","address":"264 Broadmoor Dr, Nashville, TN 37207, USA","phone_number":"+1 615-228-0449","last_updated":"2023-05-28 21:21"},"geometry":{"type":"Point","coordinates":[-86.751626,36.230544]}},{"type":"Feature","properties":{"church_name":"Church of Christ at Kings Lane","AirtableRecord":"rechPZXCs6o4gqvjI","place_id":"ChIJNVWs0adgZIgRR9AMCw4Kli0","name":"Church of Christ at Kings Lane","website":"http://www.churchofchristatkingslane.com/","latitude":"36.2194043","longitude":"-86.83262060","address":"3274 Kings Ln, Nashville, TN 37218, USA","phone_number":"+1 615-876-1700","last_updated":"2023-05-28 21:21"},"geometry":{"type":"Point","coordinates":[-86.832621,36.219404]}},{"type":"Feature","properties":{"church_name":"Church of Christ at Lawrence Avenue","default_website":"http://lawrenceavehere4u.com/","AirtableRecord":"recHgfj7Ef5d0f3oD","place_id":"ChIJqSulbStkZIgRMtgIgTSAF5I","name":"Lawrence Avenue Church-Christ","website":"http://lawrenceavehere4u.com/missions.html","latitude":"36.1289605","longitude":"-86.78362690","address":"904 Lawrence Ave, Nashville, TN 37204, USA","phone_number":"+1 615-292-7181","last_updated":"2023-05-28 21:21"},"geometry":{"type":"Point","coordinates":[-86.783627,36.12896]}},{"type":"Feature","properties":{"church_name":"Church of Christ at Trinity Lane","default_website":"http://www.trinitylane.org/","AirtableRecord":"rec85JeTjFRMfUh7R","place_id":"ChIJrT8SMuxnZIgRMwiOr2qyEZA","name":"Trinity Lane Church of Christ","latitude":"36.2053425","longitude":"-86.75732880","address":"501 E Trinity Ln, Nashville, TN 37207, USA","phone_number":"+1 615-228-0522","last_updated":"2023-05-28 21:21"},"geometry":{"type":"Point","coordinates":[-86.757329,36.205343]}},{"type":"Feature","properties":{"church_name":"Church of Christ South Town","AirtableRecord":"recSEUmiBJiuPop6z","place_id":"ChIJW_SFbC5sZIgRherqMMFPEks","name":"Church of Christ South Town","latitude":"36.0925432","longitude":"-86.65263360","address":"2131 Murfreesboro Pike # L1, Nashville, TN 37217, USA","phone_number":"+1 615-915-2994","last_updated":"2023-05-28 21:21"},"geometry":{"type":"Point","coordinates":[-86.652634,36.092543]}},{"type":"Feature","properties":{"church_name":"Church Of God","AirtableRecord":"recLZ0Yw01FeQd3DD","place_id":"ChIJk5axIudmZIgRQoQww3aqpCE","name":"Meharry Church of God","latitude":"36.1704894","longitude":"-86.80008690","address":"1212 Meharry Blvd, Nashville, TN 37208, USA","phone_number":"+1 615-329-0282","last_updated":"2023-05-28 21:21"},"geometry":{"type":"Point","coordinates":[-86.800087,36.170489]}},{"type":"Feature","properties":{"church_name":"Church of God Beth-el","AirtableRecord":"recu5Bc8cCkSXYVWE","place_id":"ChIJ-3nBieZmZIgR-QScaIxnyg0","name":"Bethel Church of God","latitude":"36.1689455","longitude":"-86.79777680","address":"Nashville, TN 37208, USA","last_updated":"2023-05-28 21:21"},"geometry":{"type":"Point","coordinates":[-86.797777,36.168945]}},{"type":"Feature","properties":{"church_name":"Church of God Donelson","AirtableRecord":"receKT4XkDyBub9nm","place_id":"ChIJncHGQV5pZIgR_93Xt586AKM","name":"Donelson Church of God","latitude":"36.1501987","longitude":"-86.66487430","address":"Nashville, TN 37214, USA","last_updated":"2023-05-28 21:21"},"geometry":{"type":"Point","coordinates":[-86.664874,36.150199]}},{"type":"Feature","properties":{"church_name":"Church Of God Tabernacle","AirtableRecord":"recWqnE1XSC4Ra0l3","place_id":"ChIJR_zMIiRnZIgRLs_X-9OguwU","name":"Pentecostal Tabernacle Church of God in Christ","latitude":"36.1834517","longitude":"-86.80826030","address":"Nashville, TN 37208, USA","last_updated":"2023-05-28 21:21"},"geometry":{"type":"Point","coordinates":[-86.80826,36.183452]}},{"type":"Feature","properties":{"church_name":"Church of Grace Village","default_website":"https://www.thechurchofgracevillage.com/","AirtableRecord":"recNSpuQyg5F4NUdz","place_id":"ChIJ77o2mKd6ZIgRL9PswvaX7Kk","name":"The Church of Grace Village","website":"http://www.thechurchofgracevillage.com/","latitude":"36.0326828","longitude":"-86.74307420","address":"5866 Edmondson Pike, Nashville, TN 37211, USA","phone_number":"+1 615-810-9845","last_updated":"2023-05-28 21:21"},"geometry":{"type":"Point","coordinates":[-86.743074,36.032683]}},{"type":"Feature","properties":{"church_name":"Church Of Jesus Christ Of LDS","AirtableRecord":"rec3H7Qz6PuXuLxFv","place_id":"ChIJ3f0pmhFoZIgR6je4E8PV3VE","name":"The Church of Jesus Christ of Latter-day Saints","website":"https://local.churchofjesuschrist.org/en/us/tn/nashville/1240-mcgavock-pike?utm_source=Google&cid=yext_us_tn_60&y_source=1_MTQ1MTIxNDQtNzE1LWxvY2F0aW9uLndlYnNpdGU%3D","latitude":"36.2039300","longitude":"-86.72952900","address":"1240 McGavock Pk, Nashville, TN 37216, USA","phone_number":"+1 931-627-3993","last_updated":"2023-05-28 21:21"},"geometry":{"type":"Point","coordinates":[-86.729529,36.20393]}},{"type":"Feature","properties":{"church_name":"Church of the Advent Episcopal","default_website":"http://www.adventnashville.org/","AirtableRecord":"recdSi0qgc426ZAwI","place_id":"ChIJedBeaNV6ZIgRUB5PkD2YqgU","name":"Church of the Advent Episcopal","website":"https://churchoftheadventepiscopal.org/","latitude":"36.0447550","longitude":"-86.78264290","address":"5501 Franklin Pike, Nashville, TN 37220, USA","phone_number":"+1 615-373-5630","last_updated":"2023-05-28 21:21"},"geometry":{"type":"Point","coordinates":[-86.782643,36.044755]}},{"type":"Feature","properties":{"church_name":"Church of the City","default_website":"http://www.thepeopleschurch.org/","AirtableRecord":"recaut8LadWRMdyli","place_id":"ChIJH-2CtdJnZIgRU-WXn3oHbnY","name":"Church of the City - Downtown","website":"http://churchofthecity.com/downtown","latitude":"36.1542756","longitude":"-86.77322850","address":"601 4th Ave S, Nashville, TN 37210, USA","last_updated":"2023-05-28 21:21"},"geometry":{"type":"Point","coordinates":[-86.773229,36.154276]}},{"type":"Feature","properties":{"church_name":"Church of the City Antioch","AirtableRecord":"rechbGB2e3uIefiUZ","place_id":"ChIJH-2CtdJnZIgRU-WXn3oHbnY","name":"Church of the City - Downtown","website":"http://churchofthecity.com/downtown","latitude":"36.1542756","longitude":"-86.77322850","address":"601 4th Ave S, Nashville, TN 37210, USA","last_updated":"2023-05-28 21:21"},"geometry":{"type":"Point","coordinates":[-86.773229,36.154276]}},{"type":"Feature","properties":{"church_name":"Church of the City East Nashville","AirtableRecord":"rec9raFwupFc8OYbV","place_id":"ChIJQ00GMWloZIgRboTD6THRY0s","name":"City Church of East Nashville","website":"http://www.ccen.org/","latitude":"36.1752649","longitude":"-86.75787510","address":"805 Woodland St #330, Nashville, TN 37206, USA","phone_number":"+1 615-307-0176","last_updated":"2023-05-28 21:21"},"geometry":{"type":"Point","coordinates":[-86.757875,36.175265]}},{"type":"Feature","properties":{"church_name":"Church of the City Franklin","AirtableRecord":"rec5AZyiioxwwHjXe","place_id":"ChIJp8m80x1_ZIgRtn5TxRx-WUY","name":"Church of the City","website":"http://www.cotc.com/","latitude":"35.9146701","longitude":"-86.84753780","address":"828 Murfreesboro Rd, Franklin, TN 37064, USA","phone_number":"+1 615-465-5000","last_updated":"2023-05-28 21:21"},"geometry":{"type":"Point","coordinates":[-86.847538,35.91467]}},{"type":"Feature","properties":{"church_name":"Church of the City Sylvan Park","AirtableRecord":"recyjfvnfyJ8o8oIe","place_id":"ChIJlcKUjjthZIgRjuTJv_trzeM","name":"Church of the City - Sylvan Park","website":"https://cotc.com/downtown/","latitude":"36.1507873","longitude":"-86.84527680","address":"4805 Park Ave, Nashville, TN 37209, USA","phone_number":"+1 615-465-5000","last_updated":"2023-05-28 21:21"},"geometry":{"type":"Point","coordinates":[-86.845277,36.150787]}},{"type":"Feature","properties":{"church_name":"Church of the Epiphany","AirtableRecord":"reczmdI4QbPyyRGRo","place_id":"ChIJc6fRgFgfZIgRwwV5x8AzJz4","name":"Episcopal Church Of The Epiphany","website":"http://www.epiphanytn.com/","latitude":"36.2065057","longitude":"-86.32500720","address":"1500 Hickory Ridge Rd, Lebanon, TN 37087, USA","phone_number":"+1 615-444-7336","last_updated":"2023-05-28 21:21"},"geometry":{"type":"Point","coordinates":[-86.325007,36.206506]}},{"type":"Feature","properties":{"church_name":"Church of the Good Shepherd","AirtableRecord":"rec22sPrqBjyL0V0y","place_id":"ChIJJ1uF9cKHZIgRyQDxG9l2zzQ","name":"Good Shepherd Nashville","website":"http://goodshepherdnashville.org/","latitude":"36.0625857","longitude":"-86.94079930","address":"7501 Old Harding Pike, Nashville, TN 37221, USA","last_updated":"2023-05-28 21:21"},"geometry":{"type":"Point","coordinates":[-86.940799,36.062586]}},{"type":"Feature","properties":{"church_name":"Church of the Holy Spirit","AirtableRecord":"rectrPMsYQMZhm90n","place_id":"ChIJmf-Dk9tvZIgR-c-vtuWvN7A","name":"Nashville Korean Episcopal Church of the Holy Spirit","website":"https://sungshin.us/","latitude":"36.0515370","longitude":"-86.71551200","address":"5325 Nolensville Pk, Nashville, TN 37211, USA","phone_number":"+1 615-333-9979","last_updated":"2023-05-28 21:21"},"geometry":{"type":"Point","coordinates":[-86.715512,36.051537]}},{"type":"Feature","properties":{"church_name":"Church of the Holy Trinity","default_website":"http://chtnashville.com/","AirtableRecord":"recfXoijFidhBLQjf","place_id":"ChIJ9_uSF2dmZIgRW0IAnyepyKA","name":"Church of the Holy Trinity","website":"http://chtnashville.com/","latitude":"36.1528470","longitude":"-86.77551080","address":"615 6th Ave S, Nashville, TN 37203, USA","phone_number":"+1 615-256-6359","last_updated":"2023-05-28 21:21"},"geometry":{"type":"Point","coordinates":[-86.775511,36.152847]}},{"type":"Feature","properties":{"church_name":"Church of the Holy Trinity Episcopal","AirtableRecord":"recExmjID1l3ALr7q","place_id":"ChIJ9_uSF2dmZIgRW0IAnyepyKA","name":"Church of the Holy Trinity","website":"http://chtnashville.com/","latitude":"36.1528470","longitude":"-86.77551080","address":"615 6th Ave S, Nashville, TN 37203, USA","phone_number":"+1 615-256-6359","last_updated":"2023-05-28 21:21"},"geometry":{"type":"Point","coordinates":[-86.775511,36.152847]}},{"type":"Feature","properties":{"church_name":"Church of the Living God","AirtableRecord":"recYh1RTgvHYTX3ca","place_id":"ChIJKz-uYm9hZIgRcWTwTWBatng","name":"The Living Word COGIC","website":"https://www.thelivingwordcogic.com/","latitude":"36.1456050","longitude":"-86.84913320","address":"5100 Wyoming Ave, Nashville, TN 37209, USA","phone_number":"+1 615-297-7437","last_updated":"2023-05-28 21:21"},"geometry":{"type":"Point","coordinates":[-86.849133,36.145605]}},{"type":"Feature","properties":{"church_name":"Church of the Living Water","AirtableRecord":"rec6mMmiaZxo0exoW","place_id":"ChIJOWmBK2BDZIgR6fJhyVg_CTQ","name":"Church Of The Living Water","website":"http://www.clwnashville.org/","latitude":"36.3046340","longitude":"-86.71917290","address":"731 Dickerson Rd, Goodlettsville, TN 37072, USA","phone_number":"+1 615-948-2679","last_updated":"2023-05-28 21:21"},"geometry":{"type":"Point","coordinates":[-86.719173,36.304634]}},{"type":"Feature","properties":{"church_name":"Church of the Messiah","default_website":"http://cotmnashville.org/church-leadership/","AirtableRecord":"recwkUsVmSxDdHq8K","place_id":"ChIJ77ooZ2tmZIgR2IhQ5TnIMpc","name":"Church of the Messiah","website":"http://cotmnashville.org/","latitude":"36.1492740","longitude":"-86.76336060","address":"88 Lafayette St, Nashville, TN 37210, USA","phone_number":"+1 615-255-3713","last_updated":"2023-05-28 21:21"},"geometry":{"type":"Point","coordinates":[-86.763361,36.149274]}},{"type":"Feature","properties":{"church_name":"Church Of The Redeemer","default_website":"http://www.redeemer-nashville.net/","AirtableRecord":"recOze5TCN28EITW3","place_id":"ChIJKc51DLNlZIgRhuZIcblN4gg","name":"Church of the Redeemer","website":"https://www.redeemer-nashville.net/","latitude":"36.1046182","longitude":"-86.77938750","address":"920 Caldwell Ln, Nashville, TN 37204, USA","phone_number":"+1 615-383-9888","last_updated":"2023-05-28 21:21"},"geometry":{"type":"Point","coordinates":[-86.779387,36.104618]}},{"type":"Feature","properties":{"church_name":"Church Women United in Nashville","AirtableRecord":"rec9iBQpUqu3CAZWg","place_id":"ChIJ6c54l9VnZIgRi4hu69szVWY","name":"Unite Church Nashville","website":"https://unitechurchnashville.com/","latitude":"36.1900780","longitude":"-86.76488920","address":"1101 Stainback Ave, Nashville, TN 37207, USA","last_updated":"2023-05-28 21:21"},"geometry":{"type":"Point","coordinates":[-86.764889,36.190078]}},{"type":"Feature","properties":{"church_name":"Church-Jesus Christ Lds","AirtableRecord":"rec2huzT0iYfxM8HZ","place_id":"ChIJt3cLiHhkZIgRPXYGgrm34s4","name":"The Church of Jesus Christ of Latter-day Saints","website":"https://local.churchofjesuschrist.org/en/us/tn/nashville/4304-hillsboro-pike?utm_source=Google&cid=yext_us_tn_68&y_source=1_MTQ1MTIzMDgtNzE1LWxvY2F0aW9uLndlYnNpdGU%3D","latitude":"36.0983756","longitude":"-86.82107590","address":"4304 Hillsboro Pike, Nashville, TN 37215, USA","phone_number":"+1 615-516-5957","last_updated":"2023-05-28 21:21"},"geometry":{"type":"Point","coordinates":[-86.821076,36.098376]}},{"type":"Feature","properties":{"church_name":"Church-Living God Pillar-Grnd","AirtableRecord":"reccZEYghttkmuYgx","place_id":"ChIJKz-uYm9hZIgRcWTwTWBatng","name":"The Living Word COGIC","website":"https://www.thelivingwordcogic.com/","latitude":"36.1456050","longitude":"-86.84913320","address":"5100 Wyoming Ave, Nashville, TN 37209, USA","phone_number":"+1 615-297-7437","last_updated":"2023-05-28 21:21"},"geometry":{"type":"Point","coordinates":[-86.849133,36.145605]}},{"type":"Feature","properties":{"church_name":"CitiPoint Church Nashville","AirtableRecord":"recE1TkiAXinVlvn4","place_id":"ChIJj7tlajdwZIgRPIS3JAR8RJw","name":"Citipointe Church Nashville","website":"https://citipointechurch.com/citipointe-locations/nashville/","latitude":"36.0270165","longitude":"-86.70838310","address":"7533 Lords Chapel Dr, Nashville, TN 37211, USA","phone_number":"+1 615-331-0202","last_updated":"2023-05-28 21:21"},"geometry":{"type":"Point","coordinates":[-86.708383,36.027017]}},{"type":"Feature","properties":{"church_name":"City Church of East Nashville","default_website":"http://www.citychurcheast.org/","AirtableRecord":"recw8ooyij0V8tQfL","place_id":"ChIJQ00GMWloZIgRboTD6THRY0s","name":"City Church of East Nashville","website":"http://www.ccen.org/","latitude":"36.1752649","longitude":"-86.75787510","address":"805 Woodland St #330, Nashville, TN 37206, USA","phone_number":"+1 615-307-0176","last_updated":"2023-05-28 21:21"},"geometry":{"type":"Point","coordinates":[-86.757875,36.175265]}},{"type":"Feature","properties":{"church_name":"City Road Chapel United Methodist Church","default_website":"http://www.cityroadchapel.org/","AirtableRecord":"recQKUwuwCDv6FT4N","place_id":"ChIJx6xrh-NCZIgRkIUVF-2P448","name":"City Road Chapel United Methodist Church","website":"http://cityroadchapel.org/","latitude":"36.2557649","longitude":"-86.71423940","address":"701 Gallatin Pike S, Madison, TN 37115, USA","phone_number":"+1 615-868-1673","last_updated":"2023-05-28 21:21"},"geometry":{"type":"Point","coordinates":[-86.714239,36.255765]}},{"type":"Feature","properties":{"church_name":"Ciudad de Refugio Church of the Nazarene","AirtableRecord":"recSJqCKVFpCJ7CJx","place_id":"ChIJz7d4EX1vZIgRvSgtbKyBr7Y","name":"Radnor Church of the Nazarene","latitude":"36.0972747","longitude":"-86.73959430","address":"Nashville, TN 37211, USA","last_updated":"2023-05-28 21:21"},"geometry":{"type":"Point","coordinates":[-86.739594,36.097275]}},{"type":"Feature","properties":{"church_name":"Clark Memorial United Methodist Church","AirtableRecord":"recUQPmQMJRndqAsM","place_id":"ChIJUzEiAudmZIgROC0Ul_3SR88","name":"Clark Memorial United Methodist Church","website":"http://www.clarkumcnashville.org/","latitude":"36.1694213","longitude":"-86.79994130","address":"1014 14th Ave N, Nashville, TN 37208, USA","phone_number":"+1 615-329-4464","last_updated":"2023-05-28 21:21"},"geometry":{"type":"Point","coordinates":[-86.799941,36.169421]}},{"type":"Feature","properties":{"church_name":"Clarksville Highway Church of Christ","AirtableRecord":"recuHWiVtW4RceWtr","place_id":"ChIJ1VLbQFT2ZIgR3xreTVYYxHM","name":"Clarksville Highway Church","website":"http://www.clarksvillehwychurch.com/","latitude":"36.3501442","longitude":"-86.93954190","address":"5444 US-41 ALT, Joelton, TN 37080, USA","last_updated":"2023-05-28 21:21"},"geometry":{"type":"Point","coordinates":[-86.939542,36.350144]}},{"type":"Feature","properties":{"church_name":"Clearview Baptist Church","AirtableRecord":"receoqGL4oNQY32Dp","place_id":"ChIJp02u3ep9ZIgRVtKqH1x12oM","name":"Clearview Baptist Church","website":"https://www.clearview.org/","latitude":"35.9667571","longitude":"-86.84039720","address":"537 Franklin Rd Building A, Franklin, TN 37069, USA","phone_number":"+1 615-794-5488","last_updated":"2023-05-28 21:21"},"geometry":{"type":"Point","coordinates":[-86.840397,35.966757]}},{"type":"Feature","properties":{"church_name":"Cleveland Street Baptist Church","AirtableRecord":"rec4QCtS0xRQUY869","place_id":"ChIJXQUzF8hnZIgR0C1mh5CFsZA","name":"Cleveland Street Baptist Church","website":"https://www.clevelandstreetbaptistchurch.org/","latitude":"36.1858868","longitude":"-86.76143680","address":"608 Cleveland St, Nashville, TN 37207, USA","phone_number":"+1 615-227-1149","last_updated":"2023-05-28 21:21"},"geometry":{"type":"Point","coordinates":[-86.761437,36.185887]}},{"type":"Feature","properties":{"church_name":"Cofers Chapel Free Will Baptist","default_website":"http://coferschapel.org/","AirtableRecord":"recNA7LPgqdrKNS84","place_id":"ChIJ1RRHK7dlZIgR3j4jZf2Jj14","name":"Cofer's Chapel","website":"http://www.coferschapel.org/","latitude":"36.1059366","longitude":"-86.77369230","address":"3915 Franklin Pike, Nashville, TN 37204, USA","phone_number":"+1 615-298-9288","last_updated":"2023-05-28 21:21"},"geometry":{"type":"Point","coordinates":[-86.773692,36.105937]}},{"type":"Feature","properties":{"church_name":"Community Baptist Church","AirtableRecord":"recLJTa4FCAdSFP2B","place_id":"ChIJv4G1It9cZIgR0YQSVbKIIfY","name":"Community Baptist Church","website":"http://www.cbcnash.org/","latitude":"36.2647344","longitude":"-86.75777740","address":"3838 Dickerson Pike, Nashville, TN 37207, USA","phone_number":"+1 615-612-3446","last_updated":"2023-05-28 21:21"},"geometry":{"type":"Point","coordinates":[-86.757777,36.264734]}},{"type":"Feature","properties":{"church_name":"Community Bible Church","default_website":"http://www.cbcnashville.org/","AirtableRecord":"recPewdZefvIJwh5f","place_id":"ChIJMWoGp596ZIgRaVDkRyOlQnY","name":"Community Bible Church","website":"http://cbcnashville.org/","latitude":"36.0215797","longitude":"-86.74382020","address":"6005 Edmondson Pike, Nashville, TN 37211, USA","phone_number":"+1 615-833-9148","last_updated":"2023-05-28 21:21"},"geometry":{"type":"Point","coordinates":[-86.74382,36.02158]}},{"type":"Feature","properties":{"church_name":"Community Christian Church","default_website":"https://www.communitychristian.org/","AirtableRecord":"recMMKmFcsYW1A4yC","place_id":"ChIJJzcpbbdnZIgRtDG4CahPscE","name":"Community Christian Church","website":"http://cccdisciples.com/","latitude":"36.1857213","longitude":"-86.76513120","address":"828 Lischey Ave, Nashville, TN 37207, USA","phone_number":"+1 615-647-7575","last_updated":"2023-05-28 21:21"},"geometry":{"type":"Point","coordinates":[-86.765131,36.185721]}},{"type":"Feature","properties":{"church_name":"Concord Church of the Nazarene","AirtableRecord":"recnVSYEL0Dx0z6KT","place_id":"ChIJ8QJhKARxZIgRNakD5uCVvkc","name":"Concord Community Church","website":"http://www.concordnaz.com/","latitude":"35.9940667","longitude":"-86.69517520","address":"9826 Concord Rd, Brentwood, TN 37027, USA","phone_number":"+1 615-776-3990","last_updated":"2023-05-28 21:21"},"geometry":{"type":"Point","coordinates":[-86.695175,35.994067]}},{"type":"Feature","properties":{"church_name":"Concord Road Church Of Christ","AirtableRecord":"recmYWPwAPLDEjbUy","place_id":"ChIJEabZ46x7ZIgRemJQedbB8Eg","name":"Concord Road Church of Christ","website":"https://concordroad.org/","latitude":"35.9952354","longitude":"-86.78314200","address":"8221 Concord Rd, Brentwood, TN 37027, USA","phone_number":"+1 615-373-4353","last_updated":"2023-05-28 21:21"},"geometry":{"type":"Point","coordinates":[-86.783142,35.995235]}},{"type":"Feature","properties":{"church_name":"Concord-Grandview Baptist Church","AirtableRecord":"recucRCTROYAaOHJd","place_id":"ChIJzaWHEglxZIgR-ScMF941dxM","name":"Concord Grandview Baptist Church","latitude":"35.9960078","longitude":"-86.68842200","address":"6820 Nolensville Pk, Brentwood, TN 37027, USA","last_updated":"2023-05-28 21:21"},"geometry":{"type":"Point","coordinates":[-86.688422,35.996008]}},{"type":"Feature","properties":{"church_name":"Concordia Lutheran Church","default_website":"http://concordianashville.com/","AirtableRecord":"recPiJPmU0vmi2zNp","place_id":"ChIJa4_R7lRhZIgRwhrZQEP5nus","name":"Concordia Lutheran Church-LCMS","website":"http://concordianashville.org/","latitude":"36.1378403","longitude":"-86.82355230","address":"3501 Central Ave, Nashville, TN 37205, USA","phone_number":"+1 615-292-0982","last_updated":"2023-05-28 21:21"},"geometry":{"type":"Point","coordinates":[-86.823552,36.13784]}},{"type":"Feature","properties":{"church_name":"Connect Church","AirtableRecord":"recRD3Nzs4GRcuSR2","place_id":"ChIJ0eWsYGBpZIgRu4nKjKPGzSs","name":"Connect Church | Downtown Campus","latitude":"36.1400588","longitude":"-86.73746200","address":"701 Murfreesboro Pike, Nashville, TN 37210, USA","last_updated":"2023-05-28 21:21"},"geometry":{"type":"Point","coordinates":[-86.737462,36.140059]}},{"type":"Feature","properties":{"church_name":"Connection Pointe Church","AirtableRecord":"rectPniqOxSKFklUj","place_id":"ChIJ1TCyb4plZIgRhTfE_lUFM2A","name":"Connection Pointe","website":"http://www.connectionpointe.com/","latitude":"36.0577573","longitude":"-86.74078800","address":"5240 Edmondson Pike, Nashville, TN 37211, USA","phone_number":"+1 615-732-5890","last_updated":"2023-05-28 21:21"},"geometry":{"type":"Point","coordinates":[-86.740788,36.057757]}},{"type":"Feature","properties":{"church_name":"Connection United Methodist Church","AirtableRecord":"recgkHwphNnrRum5I","place_id":"ChIJnwRk8tBrZIgR4AQct3hmzW0","name":"Connection United Methodist Church - Lebanon Pike Campus","website":"http://www.connectionumc.org/","latitude":"36.1689074","longitude":"-86.65883340","address":"2846 Lebanon Pike, Nashville, TN 37214, USA","phone_number":"+1 615-883-2321","last_updated":"2023-05-28 21:21"},"geometry":{"type":"Point","coordinates":[-86.658833,36.168907]}},{"type":"Feature","properties":{"church_name":"Connell Memorial United Methodist Church","AirtableRecord":"reczHT25EuRaynL4o","place_id":"ChIJHeNNd8BEZIgR-rdBDZk00xw","name":"Connell Memorial United Methodist Church","website":"http://www.connellumc.org/","latitude":"36.3247781","longitude":"-86.71031750","address":"113 Church St, Goodlettsville, TN 37072, USA","phone_number":"+1 615-859-5915","last_updated":"2023-05-28 21:21"},"geometry":{"type":"Point","coordinates":[-86.710318,36.324778]}},{"type":"Feature","properties":{"church_name":"Corinthian Baptist Church","AirtableRecord":"recwlllvcTikniPhk","place_id":"ChIJMU_laTRhZIgRqN7K7FkYKrY","name":"Corinthian Missionary Baptist Church","latitude":"36.1600980","longitude":"-86.82561030","address":"819 33rd Ave N, Nashville, TN 37209, USA","phone_number":"+1 615-977-6855","last_updated":"2023-05-28 21:21"},"geometry":{"type":"Point","coordinates":[-86.82561,36.160098]}},{"type":"Feature","properties":{"church_name":"Corinthian Missionary Baptist Church","AirtableRecord":"recVU7UF4watpfCAg","place_id":"ChIJMU_laTRhZIgRqN7K7FkYKrY","name":"Corinthian Missionary Baptist Church","latitude":"36.1600980","longitude":"-86.82561030","address":"819 33rd Ave N, Nashville, TN 37209, USA","phone_number":"+1 615-977-6855","last_updated":"2023-05-28 21:21"},"geometry":{"type":"Point","coordinates":[-86.82561,36.160098]}},{"type":"Feature","properties":{"church_name":"Cornerstone Nashville","AirtableRecord":"reczkLio5kTEWHUuG","place_id":"ChIJEZaZ5yhDZIgR2xpjGb9hNc0","name":"Cornerstone Nashville","website":"http://www.cornerstonenashville.org/","latitude":"36.2656645","longitude":"-86.73367510","address":"726 W Old Hickory Blvd, Madison, TN 37115, USA","phone_number":"+1 615-865-6655","last_updated":"2023-05-28 21:21"},"geometry":{"type":"Point","coordinates":[-86.733675,36.265664]}},{"type":"Feature","properties":{"church_name":"Cornerstone Presbyterian Church (Franklin, TN)","AirtableRecord":"rec9IgIW24V9AwTRK","place_id":"ChIJK-A5WVF-ZIgRQcNsZNB9CG0","name":"Cornerstone Presbyterian Church","website":"http://cornerstonepresfranklin.org/","latitude":"35.9237606","longitude":"-86.86820100","address":"136 3rd Ave S, Franklin, TN 37064, USA","phone_number":"+1 615-618-4707","last_updated":"2023-05-28 21:22"},"geometry":{"type":"Point","coordinates":[-86.868201,35.923761]}},{"type":"Feature","properties":{"church_name":"Covenant Baptist Church","AirtableRecord":"recL7UBmXC2Vs33nb","place_id":"ChIJc0g5d2uPZIgRECMqx6e9y0c","name":"Covenant Baptist Church in Bellevue","website":"http://www.covenantbaptistbellevue.org/","latitude":"36.0719523","longitude":"-87.00602130","address":"8201 McCrory Ln, Nashville, TN 37221, USA","phone_number":"+1 615-646-1919","last_updated":"2023-05-28 21:22"},"geometry":{"type":"Point","coordinates":[-87.006021,36.071952]}},{"type":"Feature","properties":{"church_name":"Covenant Of The Cross","AirtableRecord":"recFLpCkSHuiX0f7Y","place_id":"ChIJ39Su2OZCZIgRbn4uF_6tY6A","name":"Covenant of the Cross","website":"http://www.covenantofthecross.com/","latitude":"36.2559266","longitude":"-86.71864260","address":"773M+R8, 752 Madison Square, Nashville, TN 37115, USA","phone_number":"+1 615-612-5040","last_updated":"2023-05-28 21:22"},"geometry":{"type":"Point","coordinates":[-86.718643,36.255927]}},{"type":"Feature","properties":{"church_name":"Covenant Presbyterian Church","default_website":"http://www.covenantpres.com/","AirtableRecord":"recRxiFugOo0alNNu","place_id":"ChIJUzyPr4FjZIgRi1kX0OFN9fQ","name":"Covenant Presbyterian Church","website":"https://www.covenantpres.com/","latitude":"36.0928596","longitude":"-86.82524470","address":"33 Burton Hills Blvd, Nashville, TN 37215, USA","phone_number":"+1 615-383-2206","last_updated":"2023-05-28 21:22"},"geometry":{"type":"Point","coordinates":[-86.825245,36.09286]}},{"type":"Feature","properties":{"church_name":"Crieve Hall Church of Christ","default_website":"http://www.crievehall.org/","AirtableRecord":"recglFw0FFtzssY0X","place_id":"ChIJUeN0vG1lZIgRg_FDknVEWSA","name":"Crieve Hall Church of Christ","website":"http://crievehall.org/","latitude":"36.0761085","longitude":"-86.75863090","address":"4806 Trousdale Dr, Nashville, TN 37220, USA","phone_number":"+1 615-832-9658","last_updated":"2023-05-28 21:22"},"geometry":{"type":"Point","coordinates":[-86.758631,36.076108]}},{"type":"Feature","properties":{"church_name":"Crievewood Baptist Church","AirtableRecord":"recfjt2LCJdo0GLEZ","place_id":"ChIJ4SDpXUJlZIgRNXAg-eZhS7g","name":"Crievewood Baptist Church","website":"http://crievewood.com/","latitude":"36.0660425","longitude":"-86.75461430","address":"480 Hogan Rd, Nashville, TN 37220, USA","phone_number":"+1 615-832-5968","last_updated":"2023-05-28 21:22"},"geometry":{"type":"Point","coordinates":[-86.754614,36.066043]}},{"type":"Feature","properties":{"church_name":"Crievewood United Methodist Church","default_website":"http://www.crievewoodumc.org/","AirtableRecord":"recIXuLurKsNTwUiY","place_id":"ChIJxeUMAV1lZIgRevae-nFsxCk","name":"Crievewood United Methodist Church","website":"http://crievewoodumc.org/","latitude":"36.0640841","longitude":"-86.74950490","address":"451 Hogan Rd, Nashville, TN 37220, USA","phone_number":"+1 615-832-2897","last_updated":"2023-05-28 21:22"},"geometry":{"type":"Point","coordinates":[-86.749505,36.064084]}},{"type":"Feature","properties":{"church_name":"Cross of Life Lutheran Church Missouri","AirtableRecord":"recjRdjQfPo9zIlOw","place_id":"ChIJa4_R7lRhZIgRwhrZQEP5nus","name":"Concordia Lutheran Church-LCMS","website":"http://concordianashville.org/","latitude":"36.1378403","longitude":"-86.82355230","address":"3501 Central Ave, Nashville, TN 37205, USA","phone_number":"+1 615-292-0982","last_updated":"2023-05-28 21:21"},"geometry":{"type":"Point","coordinates":[-86.823552,36.13784]}},{"type":"Feature","properties":{"church_name":"Cross Point Church","AirtableRecord":"rec3sdB85sEh4U6lS","place_id":"ChIJn8PhUlNmZIgRnsndQskInyo","name":"Cross Point Church","website":"http://crosspoint.tv/","latitude":"36.1758161","longitude":"-86.77736190","address":"299 Cowan St, Nashville, TN 37213, USA","phone_number":"+1 615-298-4422","last_updated":"2023-05-28 21:22"},"geometry":{"type":"Point","coordinates":[-86.777362,36.175816]}},{"type":"Feature","properties":{"church_name":"Cross Point Community Church","AirtableRecord":"recqS6jAY7gX9UuCg","place_id":"ChIJn8PhUlNmZIgRnsndQskInyo","name":"Cross Point Church","website":"http://crosspoint.tv/","latitude":"36.1758161","longitude":"-86.77736190","address":"299 Cowan St, Nashville, TN 37213, USA","phone_number":"+1 615-298-4422","last_updated":"2023-05-28 21:22"},"geometry":{"type":"Point","coordinates":[-86.777362,36.175816]}},{"type":"Feature","properties":{"church_name":"Cross Timbers Free Will Baptist Church","AirtableRecord":"recZ7g7CxY5x9yl1z","place_id":"ChIJqY1tk1uIZIgRes5kBnXdtpQ","name":"Cross Timbers Free Will Baptist Church","website":"https://www.crosstimbersfwbc.com/","latitude":"36.0786703","longitude":"-86.93618290","address":"201 Cross Timbers Dr, Nashville, TN 37221, USA","phone_number":"+1 615-646-0515","last_updated":"2023-05-28 21:22"},"geometry":{"type":"Point","coordinates":[-86.936183,36.07867]}},{"type":"Feature","properties":{"church_name":"Crossland Church","AirtableRecord":"rec0nbLTnuSIbAcbD","place_id":"ChIJf7G4jWFtZIgRqlrOc5XW4Qo","name":"Crossland Church","website":"https://www.crosslandchurch.com/","latitude":"36.0484297","longitude":"-86.64512840","address":"5424 Bell Forge Ln E Unit 694, Antioch, TN 37013, USA","phone_number":"+1 615-669-5805","last_updated":"2023-05-28 21:22"},"geometry":{"type":"Point","coordinates":[-86.645128,36.04843]}},{"type":"Feature","properties":{"church_name":"Crosspoint Church","default_website":"https://www.crosspoint.tv/","AirtableRecord":"rec7MZhG3CTerYtle","place_id":"ChIJn8PhUlNmZIgRnsndQskInyo","name":"Cross Point Church","website":"http://crosspoint.tv/","latitude":"36.1758161","longitude":"-86.77736190","address":"299 Cowan St, Nashville, TN 37213, USA","phone_number":"+1 615-298-4422","last_updated":"2023-05-28 21:22"},"geometry":{"type":"Point","coordinates":[-86.777362,36.175816]}},{"type":"Feature","properties":{"church_name":"Crossroads Antioch","AirtableRecord":"recWGLE18VESAMJNi","place_id":"ChIJocNHAfhtZIgRoIsgMHvUFaI","name":"My CR Church","website":"http://mycrchurch.tv/","latitude":"36.0467014","longitude":"-86.66524800","address":"1141 Bell Rd, Antioch, TN 37013, USA","phone_number":"+1 615-347-7101","last_updated":"2023-05-28 21:22"},"geometry":{"type":"Point","coordinates":[-86.665248,36.046701]}},{"type":"Feature","properties":{"church_name":"Crossway Pentecostal Church","AirtableRecord":"recdFVa5Ny7HRgx7I","place_id":"ChIJqSkKy4BjZIgRJts6sGDr-JA","name":"CrossWay Pentecostal Church","latitude":"36.0961362","longitude":"-86.82350550","address":"40 Burton Hills Blvd, Nashville, TN 37215, USA","phone_number":"+1 615-710-8512","last_updated":"2023-05-28 21:22"},"geometry":{"type":"Point","coordinates":[-86.823505,36.096136]}},{"type":"Feature","properties":{"church_name":"Cumberland Presbyterian Church","AirtableRecord":"recXVYB69CjEJTIz2","place_id":"ChIJEfMncjNqZIgRLkYruqcA9Xw","name":"Donelson Cumberland Presbyterian Church","website":"http://donelsoncpchurch.com/","latitude":"36.1702363","longitude":"-86.65629030","address":"2914 Lebanon Pike, Nashville, TN 37214, USA","last_updated":"2023-05-28 21:22"},"geometry":{"type":"Point","coordinates":[-86.65629,36.170236]}}]}